id;name;postal_code;commune;numero;voie;lieu_dit;code_insee;siret;activite;contact_url;site_internet;longitude;latitude;transport_station_presence;transport_bureau_de_vote_accessibilite;stationnement_presence;stationnement_pmr;stationnement_ext_presence;stationnement_ext_pmr;cheminement_ext_presence;cheminement_ext_terrain_stable;cheminement_ext_plain_pied;cheminement_ext_ascenseur;cheminement_ext_ascenseur_pmr;cheminement_ext_nombre_marches;cheminement_ext_reperage_marches;cheminement_ext_sens_marches;cheminement_ext_main_courante;cheminement_ext_rampe;cheminement_ext_pente_presence;cheminement_ext_pente_degre_difficulte;cheminement_ext_pente_longueur;cheminement_ext_devers;cheminement_ext_bande_guidage;cheminement_ext_retrecissement;entree_reperage;entree_vitree;entree_vitree_vitrophanie;entree_plain_pied;entree_ascenseur;entree_ascenseur_pmr;entree_marches;entree_marches_reperage;entree_marches_main_courante;entree_marches_rampe;entree_marches_sens;entree_dispositif_appel;entree_dispositif_appel_type;entree_balise_sonore;entree_aide_humaine;entree_largeur_mini;entree_pmr;entree_porte_presence;entree_porte_manoeuvre;entree_porte_type;accueil_visibilite;accueil_personnels;accueil_audiodescription_presence;accueil_audiodescription;accueil_equipements_malentendants_presence;accueil_equipements_malentendants;accueil_cheminement_plain_pied;accueil_cheminement_ascenseur;accueil_cheminement_ascenseur_pmr;accueil_cheminement_nombre_marches;accueil_cheminement_reperage_marches;accueil_cheminement_main_courante;accueil_cheminement_rampe;accueil_cheminement_sens_marches;accueil_ascenseur_etage;accueil_ascenseur_etage_pmr;accueil_classes_accessibilite;accueil_espaces_ouverts;accueil_chambre_nombre_accessibles;accueil_chambre_douche_plain_pied;accueil_chambre_douche_siege;accueil_chambre_douche_barre_appui;accueil_chambre_sanitaires_barre_appui;accueil_chambre_sanitaires_espace_usage;accueil_chambre_numero_visible;accueil_chambre_equipement_alerte;accueil_chambre_accompagnement;accueil_retrecissement;accueil_isoloir_accessibilite;accueil_urne_accessibilite;sanitaires_presence;sanitaires_adaptes;labels;labels_familles_handicap;registre_url;conformite;rnb_id
e62a802f-efea-4eb6-b64c-dc3b51227e53;11 MICHEL DE L'HOSPITAL;63000;Clermont-Ferrand;11;place Michel de l'Hospital;;63113;;Hôpital;;;3.089554;45.777483;;;True;True;True;True;;;;;;;;;;;;;;;;;;;;True;;;;;;;;;;;;80.0;;True;;;;;;;;;;;;;;;;;;;;[];;;;;;;;;;;;;;;;;;;A8NTN9JMAG6R
b9d3fb39-b595-4e48-9c6c-f38e9ad06b3b;16150 CHABANAIS;16150;Chabanais;4;Chemin des Bouvieres;;16070;;Hôpital;;;0.713335;45.872864;;;;;True;True;;;;;;;;;;;;;;;;;;;;True;;;;;;;;;;;;80.0;;True;;;;;;;;;;;;;;;;;;;;[];;;;;;;;;;;;;;;;;;;
67d59eb1-54db-4f71-83f9-b9c9389c8fc6;1 - Estelle;75014;Paris;11;Rue Desprez;;75114;;Hôpital;;;2.315671;48.834747;;;;;;;;;;;;;;;;;;;;;;;;;;True;;;;;;;;;;;;80.0;;True;;;;;;;;;;;;;;;;;;;;[];;;;;;;;;;;;;;;;;;;A1M9M3Y8VXXR
b7ac847b-5ea0-4684-8b61-7549f16334e7;20 rue Antoine de st exupery. Pierrelatte;26700;Pierrelatte;20;Rue Antoine de Saint Exupery;;26235;;Laboratoire d'analyse médicale;;;4.699842;44.376284;;;True;True;True;True;;;;;;;;;;;;;;;;;;;;True;;;;;;;;;;;;80.0;;True;;;;;;;;;True;;;;;;;;;;;[];;;;;;;;;;False;;;True;True;;;;;
54beb641-7ab7-4722-a3c2-73b982218f06;20rue godillot;75014;Paris;9;Rue Maria Helena Vieira Da Silva;;75114;;Hôpital;;;2.311409;48.828406;;;;;;;;;;;;;;;;;;;;;;;;;;True;;;;;;;;;;;;80.0;;True;;;;;;;;;;;;;;;;;;;;[];;;;;;;;;;;;;;;;;;;H7QHPZPR9RD8
1d6467c8-eb4c-4785-a59b-4b5acb02a305;29-Grand Centre de Vaccination;29200;Brest;7;rue de Roubaix;;29019;;Laboratoire d'analyse médicale;;;-4.495731;48.397033;;;True;True;;;;;;;;;;;;;;;;;;;;;;True;;;;;;;;;;;;80.0;;True;;;;;;;;;;;;;;;;;;;;[];;;;;;;;;;;;;True;True;;;;;CDMACV16R1H1
cd469895-d814-499f-802b-1aa8ed886aa3;3 Caps Health House;85180;Les Sables-d'Olonne;45;Rue des frères michelin;;85194;;Centre médical;;;-1.755562;46.499544;;;True;True;;;True;True;True;;;;;;;;;;;;;False;;;;True;;;;;;;;;;;;;;;;;;;;;;;;;;;;;;;;;;[];;;;;;;;;;;;;True;True;;;;;
0a407a66-f6a0-4407-ad92-63725232f237;5/9 rue des carnets.;92140;Clamart;5;Rue des Carnets;;92023;;Hôpital;;;2.26203;48.790833;;;;;True;True;;;;;;;;;;;;;;;;;;;;True;;;;;;;;;;;;80.0;;True;;;;;;;;;;;;;;;;;;;;[];;;;;;;;;;;;;;;;;;;
b057cf5a-4ec7-4a72-b3f0-d2b1a814ff5e;A;9300;Lavelanet;;Cite des Monts d’Olmes;;9160;;Laboratoire d'analyse médicale;;;1.83739;42.92212;;;;;True;True;;;;;;;;;;;;;;;;;;;;True;;;;;;;;;;;;80.0;;True;;;;;;;;;;;;;;;;;;;;[];;;;;;;;;;;;;True;True;;;;;
1bb935f1-2633-47ed-9d39-02ed6939d50d;A2 santé;69630;Chaponost;21;Avenue Maréchal Joffre;;69043;;Centre médical;;;4.739615;45.710813;False;;False;;False;;False;;;;;;;;;;;;;;;;False;True;True;True;;;;;;;;False;;False;True;90.0;False;True;battante;manuelle;False;non-formés;;;False;;True;;;;;;;;;;;[];;;;;;;;;;False;;;False;;;;;False;
12905191-ab52-49f3-ae98-0163da3178d4;Ab-biologie Selarl;74100;Annemasse;35;Rue du Chablais;;74012;;Laboratoire d'analyse médicale;;;6.238108;46.197258;;;True;True;;;;;;;;;;;;;;;;;;;;;;;;;;;;;;;;;;;;True;;;;;;;;;;;;;;;;;;;;[];;;;;;;;;;;;;True;True;;;;;2GQ3E729E8EG
284bcb31-bc11-4bf6-842a-3d2b4987a956;Abbott Laboratories;1400;Châtillon-sur-Chalaronne;;Route de Belleville;;1093;;Laboratoire d'analyse médicale;;http://es.abbott/;4.939878;46.115703;;;;;True;True;;;;;;;;;;;;;;;;;;;;;;;;;;;;;;;;;;True;;;;;;;;;;;;;;;;;;;;[];;;;;;;;;;;;;;;;;;;
9e6ad092-6f56-4514-bc5f-d245e78631af;Abcaim Maison Blanche;51100;Reims;88;rue de la Maison Blanche;;51454;;Centre médical;;;4.0257248282432565;49.23610863553812;;;True;True;True;;True;True;True;;;;;;;;False;;;léger;False;False;True;True;True;True;;;;;;;;False;;False;False;85.0;False;True;battante;manuelle;True;;;;False;;True;;;;;;;;;;;[];;;;;;;;;;False;;;True;True;;;;;6NFB6STVF4WG
4fba3926-2742-4c3a-a9d5-a66bb0422dd4;A.Bio.C Adour Bio Conseil;64410;Arzacq-Arraziguet;;Route de Samadet;;64063;;Laboratoire d'analyse médicale;;;-0.410625;43.542117;;;True;True;;;;;;;;;;;;;;;;;;;;;;True;;;;;;;;;;;;80.0;;True;;;;;;;;;;;;;;;;;;;;[];;;;;;;;;;;;;True;True;;;;;
a24c93cf-abd4-4232-a27d-86acc2333b1c;Abiolab;38330;Montbonnot-Saint-Martin;60;Allee Saint Exupery;;38249;;Laboratoire d'analyse médicale;;https://www.abiolab.fr/;5.808837;45.218794;;;;;True;True;;;;;;;;;;;;;;;;;;;;True;;;;;;;;;;;;80.0;;True;;;;;;;;;;;;;;;;;;;;[];;;;;;;;;;;;;;;;;;;EPKZ3Q7FFYHJ
ba2490b5-6399-4bb0-abb5-1527d4e5493e;ABIOLAB-LAEASE;84700;Sorgues;134;Rue Auguste Bédoin;;84129;;Laboratoire d'analyse médicale;;https://abiolab.fr/;4.871783;44.009549;;;True;True;True;True;;;;;;;;;;;;;;;;;;;;True;;;;;;;;;;;;80.0;;True;;;;;;;;;;;;;;;;;;;;[];;;;;;;;;;;;;True;True;;;;;KBR45KAYEJSY
3263d8c9-4ac6-4ae6-84a9-fd3201c878c7;AB Labo;64290;Gan;9;chemin de Berdoulou;;64230;;Laboratoire d'analyse médicale;;https://ab-labo.com/contact/;-0.39455;43.219761;;;;;True;True;;;;;;;;;;;;;;;;;;;;;;;;;;;;;;;;;;True;;;;;;;;;;;;;;;;;;;;[];;;;;;;;;;;;;;;;;;;
cdfb5944-8f71-4bce-841d-2bdce2e5edb1;Ac2p;93160;Noisy-le-Grand;15;Rue de l’Universite;;93051;;Laboratoire d'analyse médicale;;;2.552201;48.83727;;;;;;;;;;;;;;;;;;;;;;;;;;True;;;;;;;;;;;;80.0;;True;;;;;;;;;;;;;;;;;;;;[];;;;;;;;;;;;;True;True;;;;;1NN78GJNF6QF
bdd570c7-50d3-47fd-a770-ec36f5e2f061;Acanthis Laboratoire;5110;Lardier-et-Valença;235;Route du Briançon;;5071;;Laboratoire d'analyse médicale;;http://www.acanthis-laboratoire.com/;5.962958;44.419209;;;;;True;True;;;;;;;;;;;;;;;;;;;;;;;;;;;;;;;;;;True;;;;;;;;;;;;;;;;;;;;[];;;;;;;;;;;;;;;;;;;AW2XAG524V7Q
46f08a21-655d-49e9-839c-b4451e4c1fab;Access Échographie Vaugirard;75015;Paris;375b;Rue de Vaugirard;;;;Radiodiagnostic et imagerie médicale;;https://www.access-radiologie.com;2.294186;48.836097;True;;False;;True;False;False;;;;;;;;;;;;;;;;True;True;;True;;;;;;;;;;;;90.0;False;True;battante;manuelle;True;;;;;;True;;;;;;;;;;;[];;;;;;;;;;;;;;;;;;;ERFKF1NTQ5D3
f1974233-70c4-4555-a399-eb25580327b6;Access Santé;6000;Nice;14;Boulevard de la Madeleine;;;;Maison de santé ou centre de santé;https://www.doctolib.fr/centre-de-sante/paris/access-sante/booking/motives?specialityId=2&telehealth=false&placeId=practice-309679&profile_skipped=true&bookingFunnelSource=external_referral;https://www.centres-access-sante.fr/;7.243697047233582;43.69379467963596;True;;False;;True;True;False;;;;;;;;;;;;;;;;True;True;True;True;;;;;;;;False;;False;True;100.0;False;True;battante;manuelle;True;formés;False;;False;;True;;;;;;;;;;;[];;;;;;;;;;False;;;True;True;;;;;SR3A4BXJ72RZ
28cbef49-2512-4b9b-8c1b-27154de4f5f7;Accompagnante Naissance;92150;Suresnes;9;Rue Curie;;92073;;Centre médical;;;2.234309;48.879337;;;False;;True;True;;;;;;;;;;;;;;;;;;;;True;;;;;;;;;;;;;;;;;;;;;;;;;;;;;;;;;;[];;;;;;;;;;;;;True;True;;;;;
99cfdff6-88b7-402a-881e-9c4a10dfff50;Accueil de Jour Alzheimer Le Pavillon des Hortensias – CH Nord Deux-Sèvres;79300;Bressuire;41;Route de Poitiers;;79049;;Hôpital;;https://www.chnds.fr/accueil-de-jour-alzheimer-hortensias/5/13/104;-0.417366;46.824447;;;True;True;;;;;;;;;;;;;;;;;;;;;;True;;;;;;;;;;;;80.0;;True;;;;;;;;;;;;;;;;;;;;[];;;;;;;;;;;;;True;True;;;;;
c05beb4c-fd00-414e-8de0-52d773383f28;ACCUEIL DE JOUR HOPITAL DE FOUCHARUPT;88100;Saint-Dié-des-Vosges;;Rue Léon Jacquerez;;;;Hôpital;;;6.951749345525165;48.27680264605719;;;True;True;True;True;True;True;True;;;;;;;;;;;;;False;True;True;True;False;False;;;;;fixe;;;;;;83.0;;True;battante;manuelle;;;;;True;"[""bim""]";True;;;;;;;;;;;[];;;;;;;;;;False;;;True;True;;;;;
abdced77-b34c-40ef-b06b-8ef6f2533771;Accueil de Jour Saint Germain;75006;Paris;17;Rue du Four;;75106;;Établissement de santé;;;2.334633;48.852689;;;False;;;;;;;;;;;;;;;;;;;;;;;True;;;;;;;;;;;;;;;;;;;;;;;;;;;;;;;;;;[];;;;;;;;;;;;;True;True;;;;;
35a75815-2c17-4809-a075-cdcbff337142;ACM Analyses conseils Microbiologiques;45270;Quiers-sur-Bezonde;;Rue du Plessis;;45259;;Laboratoire d'analyse médicale;;;2.441475;47.997563;;;True;True;True;True;;;;;;;;;;;;;;;;;;;;True;;;;;;;;;;;;80.0;;True;;;;;;;;;;;;;;;;;;;;[];;;;;;;;;;;;;True;True;;;;;
f77ace83-b3fd-4dde-9f57-91e26780a9f2;Acm Bio;71300;Montceau-les-Mines;5;Rue Ferrer;;71306;;Laboratoire d'analyse médicale;;;4.362908;46.6746;;;True;True;True;True;;;;;;;;;;;;;;;;;;;;True;;;;;;;;;;;;80.0;;True;;;;;;;;;;;;;;;;;;;;[];;;;;;;;;;;;;True;True;;;;;6SZ9AWY3Y7TQ
e33f2944-e908-4d3f-b199-e9ebfbd80f8e;ACROPOLE BEZANNES;51430;Bezannes;26;Rue Louis Victor de Broglie;;;;Centre médical;;;3.996083736419678;49.2182138007366;;;True;True;;;;;;;;;;;;;;;;;;;True;;;False;False;;3.0;;;fixe;montant;;;;;90.0;False;True;battante;manuelle;;;;;;;;;;;;;;;;;;[];;;;;;;;;;;;;True;True;;;;;
9b766554-41db-4aac-ba99-dca445159f5f;ADA 17;17640;Vaux-sur-Mer;35;Avenue de Saint-Sordelin-Plage;;17461;;Hôpital;;http://www.ada17.fr/;-1.061929;45.634561;;;True;True;True;True;;;;;;;;;;;;;;;;;;;;True;;;;;;;;;;;;80.0;;True;;;;;;;;;;;;;;;;;;;;[];;;;;;;;;;;;;;;;;;;JQ1QVQ8DC9SE
8ab3198d-790d-45d3-bc78-24d897363193;ADA 17;17400;Saint-Jean-d'Angély;17;Rue Comporté;;17347;;Hôpital;;https://www.ada17.fr/;-0.531896;45.948553;;;True;True;;;;;;;;;;;;;;;;;;;;;;True;;;;;;;;;;;;80.0;;True;;;;;;;;;;;;;;;;;;;;[];;;;;;;;;;;;;;;;;;;X5W2ZJNN43QF
2e612553-89eb-4f7d-a461-8f3bf7dae65b;Adages | DITEP Bourneville;34000;Montpellier;;Rue du Mas de Barlet;;34172;;Maison de santé ou centre de santé;;;3.913191;43.599224;;;True;True;;;True;True;True;;;;;;;;;;;;;False;;;;True;;;;;;;;;;;;;;;;;;;;;;;;;;;;;;;;;;[];;;;;;;;;;;;;True;True;;;;;
eea87197-9cfa-43c7-9125-cbb5880a2b32;Adapei 63;63500;Issoire;583;Boulevard de Barriere;;63178;;Hôpital;;https://www.adapei63.fr/;3.244003;45.539334;;;True;True;True;True;;;;;;;;;;;;;;;;;;;;True;;;;;;;;;;;;80.0;;True;;;;;;;;;;;;;;;;;;;;[];;;;;;;;;;;;;True;True;;;;;3YT7SW6XWJS9
e2f7f31d-f696-44c5-8f37-a26e044d5347;Adapei 69;69003;Lyon;75;Cours Albert Thomas;;69383;;Établissement de santé;https://www.adapei69.fr/contact;https://www.adapei69.fr/;4.867860674858093;45.74690037669723;True;;False;;True;;True;True;True;;;;;;;;True;légère;;aucun;True;False;True;True;True;True;;;;;;;;True;"[""interphone""]";False;True;100.0;False;True;tourniquet;automatique;True;formés;;;;;True;;;;;;;;;;;[];;;;;;;;;;False;;;True;True;;;;;6E9DRWYNQ6RN
38496140-db3a-4296-8f25-3b29a1ed66de;Adapei Des Vosges;88120;Saint-Amé;13;Rue de la Forêt;;88409;;Hôpital;;;6.66901;48.027262;;;;;True;True;;;;;;;;;;;;;;;;;;;;True;;;;;;;;;;;;80.0;;True;;;;;;;;;;;;;;;;;;;;[];;;;;;;;;;;;;True;True;;;;;
1ed44f58-a160-4e50-820f-280372833dcc;Adapei Des Vosges;88120;Saint-Amé;46;Route de Celles;;88409;;Hôpital;;;6.649476;48.016069;;;;;True;True;;;;;;;;;;;;;;;;;;;;True;;;;;;;;;;;;80.0;;True;;;;;;;;;;;;;;;;;;;;[];;;;;;;;;;;;;True;True;;;;;
6fc0db7f-ac45-42ea-ace4-d48d0ac052e0;adbb autour de bébé Doubs;25300;Doubs;11;Rue de Besançon;;25204;;Hôpital;;https://magasins.autourdebebe.com/fr/france-FR/114/adbb-autour-de-bebe-doubs/details?utm_source=gbp-waze;6.342297;46.923808;;;;;True;True;;;;;;;;;;;;;;;;;;;;True;;;;;;;;;;;;80.0;;True;;;;;;;;;;;;;;;;;;;;[];;;;;;;;;;;;;;;;;;;
b2a47d98-943e-4a61-b0f8-74387cbf880d;Addictologie;51100;Reims;12;Rue des Elus;;51454;;Hôpital;;;4.032335;49.255839;;;;;;;;;;;;;;;;;;;;;;;;;;True;;;;;;;;;;;;80.0;;True;;;;;;;;;;;;;;;;;;;;[];;;;;;;;;;;;;;;;;;;
1686d1c7-f035-4cc5-90b5-9be11a89acc7;Adef Residences;54720;Lexy;;Rue du Commandant Spicq;;54314;;Établissement de santé;;;5.732898;49.49914;;;False;;True;True;;;;;;;;;;;;;;;;;;;;True;;;;;;;;;;;;;;;;;;;;;;;;;;;;;;;;;;[];;;;;;;;;;;;;True;True;;;;;
204e45a4-74fc-46c5-be6c-2ae1a2afcea2;Adeipa;63910;Vertaizon;5;Allée des Gravières;;63453;;Hôpital;;;3.288593;45.787202;;;True;True;;;;;;;;;;;;;;;;;;;;;;True;;;;;;;;;;;;80.0;;True;;;;;;;;;;;;;;;;;;;;[];;;;;;;;;;;;;;;;;;;HNPFYEG74HDV
36ad9649-d188-4a78-9245-dc9d6915ea6c;Adel;63730;Plauzat;38;Route de la Sauvetat;;63282;;Hôpital;;;3.153724;45.624753;;;True;True;;;;;;;;;;;;;;;;;;;;;;True;;;;;;;;;;;;80.0;;True;;;;;;;;;;;;;;;;;;;;[];;;;;;;;;;;;;;;;;;;4ENZQNJAHQ2Z
aada1283-3ac6-4a00-9a02-c78bd106c4f8;Adep;97600;Mamoudzou;17;Rue Marvatou;;;;Maison de santé ou centre de santé;;;45.2304;-12.78056;False;;False;;True;False;True;False;False;False;;1.0;False;montant;False;aucune;False;;;aucun;False;False;True;True;True;True;;;;;;;;False;;False;;100.0;False;True;coulissante;automatique;True;non-formés;False;;False;;True;;;;;;;;;;;[];;;;;;;;;;False;;;False;;;;;;
b10df172-a850-4d31-9374-977904fa0cdf;Adequat;75015;Paris;45;Rue Mathurin Régnier;;75115;;Laboratoire d'analyse médicale;;;2.30889;48.838581;;;;;;;;;;;;;;;;;;;;;;;;;;True;;;;;;;;;;;;80.0;;True;;;;;;;;;;;;;;;;;;;;[];;;;;;;;;;;;;True;True;;;;;JT2XWFW89K4B
ae3d10fd-e610-472b-b48e-15083b7e5048;Adimep;13006;Marseille;150b;Rue paradis;;13206;;Établissement de santé;;;5.379797;43.285828;;;True;True;;;True;True;True;;;;;;;;;;;;;False;;;;False;;;3.0;;;fixe;montant;;;;;;;;;;;;;;;;;;;;;;;;;;;[];;;;;;;;;;;;;True;True;;;;;
90a59522-48f5-4434-8987-c6e47f51a8cd;AD-LAB;95800;Cergy;;Rue du Pas Saint-Christophe;;95127;;Laboratoire d'analyse médicale;;http://ad-lab.fr/;2.046517;49.047179;;;;;True;True;;;;;;;;;;;;;;;;;;;;True;;;;;;;;;;;;80.0;;True;;;;;;;;;;;;;;;;;;;;[];;;;;;;;;;;;;;;;;;;
e2c75eb9-4d47-4e9f-a342-df3568c9f3c3;AD-LAB;60200;Compiègne;21;Rue de l'Aigle;;60159;;Laboratoire d'analyse médicale;;https://ad-lab.fr/en/mentions-legales/;2.836839;49.407717;;;True;True;True;True;;;;;;;;;;;;;;;;;;;;;;;;;;;;;;;;;;True;;;;;;;;;;;;;;;;;;;;[];;;;;;;;;;;;;;;;;;;MTZH8RKDC8YH
3ced0f99-f713-4cc0-aac3-ff96485e4412;A.D.N Biosmose;6000;Nice;17;Rue de Rivoli;;6088;;Laboratoire d'analyse médicale;;;7.258568;43.696742;;;;;;;;;;;;;;;;;;;;;;;;;;True;;;;;;;;;;;;80.0;;True;;;;;;;;;;;;;;;;;;;;[];;;;;;;;;;;;;True;True;;;;;N4S4HEHATEZB
3a0e213b-98e4-46f7-854f-ad1c43df73e0;Adpepa;12500;Espalion;1;Rue du Palais;;12096;;Hôpital;;;2.761675;44.520507;;;True;True;;;;;;;;;;;;;;;;;;;;;;True;;;;;;;;;;;;80.0;;True;;;;;;;;;;;;;;;;;;;;[];;;;;;;;;;;;;;;;;;;YTF2NRQ8QCTR
263b0c56-5a0f-400b-95fb-c11166b6bd46;Adrien Boisriveau Masseur-kinésithérapeute;92380;Garches;17;Rue du 19 Janvier;;92033;;Maison de santé ou centre de santé;;;2.19961;48.849477;;;False;;True;True;;;;;;;;;;;;;;;;;;;;False;;;8.0;;;;montant;;;;;;;;;;;;;;;;;;;;;;;;;;;[];;;;;;;;;;;;;True;True;;;;;
d71ace5b-6ace-421c-a60f-fd1c45c37b27;ADS 3d;68500;Bergholtz;9;Rue René Flory;;68029;;Laboratoire d'analyse médicale;;;7.253591;47.917103;;;True;True;;;True;True;True;;;;;;;;;;;;;False;;;;True;;;;;;;;;;;;;;;;;;;;;;;;;;;;;;;;;;[];;;;;;;;;;;;;True;True;;;;;
e8c96e90-ba3d-456f-8ea7-f656500331d8;ADX Groupe Paris;78140;Vélizy-Villacoublay;17;Rue Paul Dautier;;78640;;Laboratoire d'analyse médicale;;http://www.adx-groupe.com/;2.215989;48.780218;;;;;True;True;;;;;;;;;;;;;;;;;;;;;;;;;;;;;;;;;;True;;;;;;;;;;;;;;;;;;;;[];;;;;;;;;;;;;;;;;;;HJGF755FK645
3840e62b-900d-48c8-8f37-38c1650f8956;AFTC 44;44200;Nantes;85;Rue Saint Jacques;;44109;;Hôpital;;;-1.537194;47.196036;;;True;True;;;True;True;True;;;;;;;;;;;;;False;;;;True;;;;;;;;;;;;;;;;;;;;;;;;;;;;;;;;;;[];;;;;;;;;;;;;True;True;;;;;
be2ab644-7ae5-4f83-b355-cc437bd27ea3;Agahtir;6130;Grasse;78;Boulevard Victor Hugo;;6069;;Hôpital;;https://www.agahtir.fr/;6.917536;43.649756;;;;;True;True;;;;;;;;;;;;;;;;;;;;True;;;;;;;;;;;;80.0;;True;;;;;;;;;;;;;;;;;;;;[];;;;;;;;;;;;;;;;;;;9PM5ME4V1DBE
c01d8a93-1fe5-42a7-a729-6d7ad121f538;Agahtir;6210;Mandelieu-la-Napoule;601;Avenue de Fréjus;;6079;;Hôpital;;https://www.agahtir.fr/;6.932595;43.534641;;;;;True;True;;;;;;;;;;;;;;;;;;;;True;;;;;;;;;;;;80.0;;True;;;;;;;;;;;;;;;;;;;;[];;;;;;;;;;;;;;;;;;;VEYBE561HSHZ
815412fb-33f5-416c-aeb8-940c1ab57a4b;Agahtir;6730;Saint-André-de-la-Roche;;Rue zone industrie la Valliere;;6114;;Hôpital;;https://www.agahtir.fr/;7.284345;43.748119;;;;;True;True;;;;;;;;;;;;;;;;;;;;True;;;;;;;;;;;;80.0;;True;;;;;;;;;;;;;;;;;;;;[];;;;;;;;;;;;;;;;;;;
7349f45e-2e15-448a-9e9d-cd5fb7b456c1;Agathe Leverrier - Sophrologue Angers;49100;Angers;6;Avenue Pasteur;;49007;;Maison de santé ou centre de santé;;;-0.542712;47.471655;;;False;;True;True;;;;;;;;;;;;;;;;;;;;False;;;;;;aucune;;;;;;;;;;;;;;;;;;;;;;;;;;;;[];;;;;;;;;;;;;True;False;;;;;MDMJKK9AHXJS
af1e3d34-9de2-4b12-a582-635a62f0d7d5;Agemetra service de santé au travail;69007;Lyon;30;Rue Pré Gaudry;;;;Centre médical;;;4.835314;45.739901;True;;False;;True;;False;;;;;;;;;;;;;;;;True;;;True;;;;;;;;;;;False;100.0;;True;battante;;True;;False;;False;;False;True;;0.0;;;;;;;;[];;;;;;;;;;False;;;;;;;;;
226fe55f-8b17-4524-b24e-72d2d32b527e;agence thiers;33100;Bordeaux;244;Avenue Thiers;;;;Centre médical;;;-0.547205;44.848257;True;;;;;;False;;;;;;;;;;;;;;;;True;True;True;False;False;;3.0;False;True;aucune;montant;False;;False;;90.0;False;True;battante;manuelle;True;non-formés;False;;False;;True;;;;;;;;;;;[];;;;;;;;;;False;;;;;;;;;B8GBBXAETNCQ
d8ffba65-c378-43dd-b407-23b1c1415350;Agla;2100;Saint-Quentin;240;Rue d'Epargnemailles;;2691;;Hôpital;;;3.272652;49.850049;;;;;;;;;;;;;;;;;;;;;;;;;;;;;;;;;;;;;;;;True;;;;;;;;;;;;;;;;;;;;[];;;;;;;;;;;;;True;True;;;;;
f8fd94df-f666-41a7-8d63-9b60ceb53cda;Agnès Royer - Thérapie psycho-corporelle;69004;Lyon;9;Rue Richan;;69384;;Établissement de santé;;;4.83584;45.780272;;;False;;True;True;;;;;;;;;;;;;;;;;;;;False;;;21.0;;;fixe;montant;;;;;;;;;;;;;;;;;;;;;;;;;;;[];;;;;;;;;;;;;True;False;;;;;NBNJ13VTDHR3
971f65b0-e513-425e-9613-733b4b1de5d4;Agro Alim Conseil;71500;Louhans;;Rue de Brenet;;71263;;Laboratoire d'analyse médicale;;https://www.agro-alim-conseil.fr/;5.211198;46.643739;;;;;True;True;;;;;;;;;;;;;;;;;;;;;;;;;;;;;;;;;;True;;;;;;;;;;;;;;;;;;;;[];;;;;;;;;;;;;True;True;;;;;
343d3fa5-c48a-40b9-b832-db4716838f53;Agrolab's;15000;Aurillac;38;Rue de Salers;;15014;;Laboratoire d'analyse médicale;;https://www.agrolabs.fr/;2.44355;44.935514;;;True;True;True;True;;;;;;;;;;;;;;;;;;;;True;;;;;;;;;;;;80.0;;True;;;;;;;;;;;;;;;;;;;;[];;;;;;;;;;;;;;;;;;;RJ4EAMZ5BSY8
a12def5b-0c9e-423c-a882-eb0958a70433;AGROLAB'S - Site Clermont-Ferrand;63100;Clermont-Ferrand;8;rue des Frères Lumière;;63113;;Laboratoire d'analyse médicale;;http://www.galilait.fr/;3.126907;45.784673;;;;;True;True;;;;;;;;;;;;;;;;;;;;True;;;;;;;;;;;;80.0;;True;;;;;;;;;;;;;;;;;;;;[];;;;;;;;;;;;;;;;;;;T17HGB79S5HJ
da3e2a8a-0ee1-4425-bc1e-b42cad367973;Agro Qualité Service;19300;Égletons;;Rue de Tra le Bos;;19073;;Laboratoire d'analyse médicale;;;2.052795;45.399326;;;;;True;True;;;;;;;;;;;;;;;;;;;;;;;;;;;;;;;;;;True;;;;;;;;;;;;;;;;;;;;[];;;;;;;;;;;;;;;;;;;
1f5d5b4d-b4a8-4830-98ca-1efc06ac8ca6;AgroQual | Laboratoire d'analyse en Normandie;14460;Colombelles;8;Avenue du Pays de Caen;;14167;;Laboratoire d'analyse médicale;;http://www.agroqual.fr/;-0.301243;49.194466;;;True;True;True;True;;;;;;;;;;;;;;;;;;;;True;;;;;;;;;;;;80.0;;True;;;;;;;;;;;;;;;;;;;;[];;;;;;;;;;;;;;;;;;;DR9GTCJKNP1Z
10f44642-1827-453c-8d9b-f8f59328d47e;Ahsm;12500;Espalion;16;Avenue de Saint-Pierre;;12096;;Hôpital;;;2.75817;44.520678;;;True;True;;;;;;;;;;;;;;;;;;;;;;True;;;;;;;;;;;;80.0;;True;;;;;;;;;;;;;;;;;;;;[];;;;;;;;;;;;;;;;;;;4CMFYXCQBTDN
713ac32f-07df-4a42-a59a-b3d7772cdc04;Ahsm;7250;Rompon;;Celles les Bains;;7198;;Hôpital;;https://www.ahsm.fr/;4.746607;44.792155;;;True;True;;;;;;;;;;;;;;;;;;;;;;True;;;;;;;;;;;;80.0;;True;;;;;;;;;;;;;;;;;;;;[];;;;;;;;;;;;;;;;;;;
2f5c8863-6c93-49a0-b47d-c23a5dcb3c2c;Ahsm;63000;Clermont-Ferrand;37;rue Gabriel Péri;;63113;;Hôpital;;https://www.chsmclermontferrand.ahsm.fr/;3.076784;45.780548;;;True;True;True;True;;;;;;;;;;;;;;;;;;;;True;;;;;;;;;;;;80.0;;True;;;;;;;;;;;;;;;;;;;;[];;;;;;;;;;;;;True;True;;;;;3NCF964WE33H
e278bc67-ea1b-4056-b46d-7cfd1889f69c;Ahsm;63400;Chamalières;12;rue de l'Hermitage;;63075;;Hôpital;;https://www.ahsm.fr/contact/;3.053042;45.770709;;;True;True;True;True;;;;;;;;;;;;;;;;;;;;True;;;;;;;;;;;;80.0;;True;;;;;;;;;;;;;;;;;;;;[];;;;;;;;;;;;;;;;;;;CZKC8M4MDXGQ
85a3fbdb-967b-48d1-8f91-37d3e122dcd0;Ahss;72240;Conlie;3;Rue de Cures;;72089;;Hôpital;;;-0.015444;48.120857;;;;;True;True;;;;;;;;;;;;;;;;;;;;True;;;;;;;;;;;;80.0;;True;;;;;;;;;;;;;;;;;;;;[];;;;;;;;;;;;;;;;;;;XCH8BZHMBHQK
4de6b381-b955-4cc7-bab6-cfe416e7de84;Ahssea;70300;Froideconche;17;Rue aux Biches;;70258;;Hôpital;;;6.425733;47.815981;;;;;True;True;;;;;;;;;;;;;;;;;;;;True;;;;;;;;;;;;80.0;;True;;;;;;;;;;;;;;;;;;;;[];;;;;;;;;;;;;True;True;;;;;
2e01ae6c-591f-44a3-8d5d-dd4766b80213;Aide aux Insuffisants Renaux (Association);12300;Decazeville;13;Avenue Cabrol;;12089;;Hôpital;;;2.252602;44.559498;;;True;True;;;;;;;;;;;;;;;;;;;;;;True;;;;;;;;;;;;80.0;;True;;;;;;;;;;;;;;;;;;;;[];;;;;;;;;;;;;;;;;;;H17D6X9F4GDK
1b70ffa2-e16e-4b1f-8e2b-2729c9383b76;Airthemis;13770;Venelles;;Rue des Piboules;;13113;;Laboratoire d'analyse médicale;;http://airthemis.com/;5.478584;43.59191;;;;;True;True;;;;;;;;;;;;;;;;;;;;True;;;;;;;;;;;;80.0;;True;;;;;;;;;;;;;;;;;;;;[];;;;;;;;;;;;;True;True;;;;;
ed6886e9-4915-4bd9-81c3-5f3c2a0738e2;A.Laboratoire Vesco Prothèse Dentaire;11300;Limoux;31;Rue de la Bladerie;;11206;;Laboratoire d'analyse médicale;;;2.217014;43.055107;;;;;True;True;;;;;;;;;;;;;;;;;;;;;;;;;;;;;;;;;;True;;;;;;;;;;;;;;;;;;;;[];;;;;;;;;;;;;;;;;;;1QB8VYPFYRKX
f4a1056d-0f54-48d3-90dd-7a77832d2c12;AlcHA;49120;Chemillé-en-Anjou;;Rue de la Bèguerie (Chemillé);;49092;;Hôpital;;;-0.70645;47.209721;;;True;True;True;True;;;;;;;;;;;;;;;;;;;;True;;;;;;;;;;;;80.0;;True;;;;;;;;;;;;;;;;;;;;[];;;;;;;;;;;;;;;;;;;
ffdda6f3-5fbe-4a54-a1e8-6ef679306bf7;Alerte Diagnostic;56270;Ploemeur;22;Allée des Iris;;56162;;Laboratoire d'analyse médicale;;;-3.493947;47.735779;;;;;True;True;;;;;;;;;;;;;;;;;;;;True;;;;;;;;;;;;80.0;;True;;;;;;;;;;;;;;;;;;;;[];;;;;;;;;;;;;True;True;;;;;MTV846PEDAT2
2615ccc2-fef0-42ed-9e45-5d4fa2d5ab34;Alexandra ELTCHANINOFF Cabinet en Neuro-Training;34090;Montpellier;;Avenue de Castelnau;;34172;;Établissement de santé;;;3.884239;43.622468;;;False;;True;True;;;;;;;;;;;;;;;;;;;;False;;;1.0;;;aucune;descendant;;;;;;;;;;;;;;;;;;;;;;;;;;;[];;;;;;;;;;;;;True;True;;;;;
8bb6b38d-9ad0-4124-aff9-4504c8cdfc5e;Alexandra Michel Noblecourt, Conseillère en lactation, Allaitement Saint-Maur-des-Fossés 94, IBCLC;94100;Saint-Maur-des-Fossés;22;Rue Baratte Cholet;;94068;;Centre médical;;;2.485743;48.796355;;;False;;True;True;;;;;;;;;;;;;;;;;;;;True;;;;;;;;;;;;;;;;;;;;;;;;;;;;;;;;;;[];;;;;;;;;;;;;True;True;;;;;
a41139b4-49c9-4f23-83a7-1039e077060a;Alexandra MONTALESCOT;83340;Le Cannet-des-Maures;46;Rue Ambroise Paré;;83031;;Maison de santé ou centre de santé;;;6.337611677486891;43.39365223016192;;;True;True;;;True;True;True;;;;;;;;;;;;;False;;;;True;;;;;;;;;;;;;;;;;;;;;;;;;;;;;;;;;;[];;;;;;;;;;;;;True;True;;;;;
21de1381-c22a-4b3a-8e87-c9f30f28412e;Alexandre BAUIN - Sophrologue Praticien;59118;Wambrechies;157;Rue du Pont Levis;;59636;;Établissement de santé;;;3.05577;50.68906;;;True;True;;;True;True;True;;;;;;;;;;;;;False;;;;True;;;;;;;;;;;;;;;;;;;;;;;;;;;;;;;;;;[];;;;;;;;;;;;;True;True;;;;;NGF95S5HPZA3
d1dcf446-e17f-4060-a282-c6482cf20eb4;Alexandre Van Cleemput - Thérapeute médecine chinoise, spécialisé dans les problématiques musculaires et d'asthénie.;44300;Nantes;49;Rue de la Gourmette;;44109;;Maison de santé ou centre de santé;;;-1.573055;47.232978;;;False;;True;False;;;;;;;;;;;;;;;;;;;;False;;;7.0;;;;montant;;;;;;;;;;;;;;;;;;;;;;;;;;;[];;;;;;;;;;;;;True;False;;;;;5Y829VHMF9D9
803b32d7-4481-48da-9602-c8c57103ad6b;Al Hawari Suhaib;2100;Saint-Quentin;7;Rue Michel de l’Hospital;;2691;;Hôpital;;;3.265996;49.859678;;;;;True;True;;;;;;;;;;;;;;;;;;;;True;;;;;;;;;;;;80.0;;True;;;;;;;;;;;;;;;;;;;;[];;;;;;;;;;;;;True;True;;;;;H4M8M7JJVXBN
eb668a93-a6d3-4382-9b6f-7d671352e33a;ALIBIO;54710;Fléville-devant-Nancy;125;Rue du Champ Moyen;;54197;;Laboratoire d'analyse médicale;;https://www.alibio.fr/;6.20581;48.617019;;;True;True;True;True;;;;;;;;;;;;;;;;;;;;;;;;;;;;;;;;;;True;;;;;;;;;;;;;;;;;;;;[];;;;;;;;;;;;;;;;;;;D1RYJPDWY7ZR
fc90d5a3-93a9-4720-89c1-bf23c6faf74f;Alice Piat thérapie de couple;34200;Sète;17;Avenue Victor Hugo;;34301;;Maison de santé ou centre de santé;;;3.697972;43.408375;;;False;;True;True;;;;;;;;;;;;;;;;;;;;True;;;;;;;;;;;;;;;;;;;;;;;;;;;;;;;;;;[];;;;;;;;;;;;;;;;;;;
118e912b-af6e-4e8d-b86b-988f73ec5c28;All Aesthetics;6400;Cannes;6;Rue d'Alger;;6029;;Centre médical;;;7.026922;43.552578;;;True;False;True;True;True;;;;;;;;;;;;;;;;;;;True;;;;;;;;;;;;;;;;;;;;;;;;;;;;;;;;;;[];;;;;;;;;;;;;True;True;;;;;
9ed9f57a-8c58-4577-b4fb-4f03feaec20e;Allergologue;56100;Lorient;40;Cours Louis de Chazelles;;56121;;Établissement de santé;;;-3.361913;47.7535;True;;;;True;True;;;;;;;;;;;;;;;;;;;;;;;;;;;;;;;;;;;;;;;;;;;;;;;;;;;;;;[];;;;;;;;;;;;;;;;;;;1TZGWTB4CF7J
97a1d4e3-5d11-4f9c-b7be-23ce73c5d596;Alliance Anabio Betton - Laboratoire Noysette;35830;Betton;8;Avenue Mozart;;35024;;Laboratoire d'analyse médicale;;https://www.allianceanabio.fr/;-1.638292;48.181766;;;True;True;True;True;;;;;;;;;;;;;;;;;;;;True;;;;;;;;;;;;80.0;;True;;;;;;;;;;;;;;;;;;;;[];;;;;;;;;;;;;True;True;;;;;H9XET5D4CQ5D
08e10a91-8b42-430d-9051-59fc3f5137d3;Alliance Bio;55100;Verdun;;Rond Point des Etats Unis;;55545;;Laboratoire d'analyse médicale;;;5.381675;49.165082;;;True;True;True;True;;;;;;;;;;;;;;;;;;;;True;;;;;;;;;;;;80.0;;True;;;;;;;;;;;;;;;;;;;;[];;;;;;;;;;;;;True;True;;;;;
9f6d13ab-466e-4d85-8753-9cbc21aadf23;Alliance-Bio Biologie Médicale;54000;Nancy;;Rue Grandville;;54395;;Laboratoire d'analyse médicale;;;6.179781;48.700491;;;;;True;True;;;;;;;;;;;;;;;;;;;;True;;;;;;;;;;;;80.0;;True;;;;;;;;;;;;;;;;;;;;[];;;;;;;;;;;;;True;True;;;;;
1091f933-bda8-44a7-9a64-e1e5f7144b6e;ALL PHYTO;30000;Nîmes;110;Allée Charles Babbage;;30189;;Laboratoire d'analyse médicale;;http://all-phyto.fr/;4.367002;43.818913;;;;;True;True;;;;;;;;;;;;;;;;;;;;;;;;;;;;;;;;;;True;;;;;;;;;;;;;;;;;;;;[];;;;;;;;;;;;;;;;;;;TN3V26V9ZXMC
000f617e-4598-4f4e-b3e1-2f2e64057444;All Triangles;74940;Annecy;5;Rue du Pré Paillard;;74010;;Laboratoire d'analyse médicale;;http://www.alltriangles.com/;6.164740920066834;45.92916604986474;True;;True;False;True;;True;True;True;;;;;;;;False;;;aucun;False;False;True;False;;True;;;;;;;;False;;False;False;90.0;False;True;battante;manuelle;False;;;;False;;True;;;;;;;;;;;[];;;;;;;;;;False;;;False;;;;;True;
a192e53a-f460-4395-8a7a-be965382fbd4;Alpes-Isère Hospital Center;38700;La Tronche;24;Boulevard de la Chantourne;;38516;;Hôpital;;http://www.ch-alpes-isere.fr/;5.751836;45.197077;;;True;True;True;True;;;;;;;;;;;;;;;;;;;;True;;;;;;;;;;;;80.0;;True;;;;;;;;;;;;;;;;;;;;[];;;;;;;;;;;;;True;True;;;;;BYRA9XT4SHEZ
40a76a43-9e3d-4617-841e-c0121be132bf;Alphabio laboratoire B;13127;Vitrolles;;Avenue Rhin Danube;;13117;;Laboratoire d'analyse médicale;;;5.271613;43.424538;;;;;True;True;;;;;;;;;;;;;;;;;;;;;;;;;;;;;;;;;;True;;;;;;;;;;;;;;;;;;;;[];;;;;;;;;;;;;;;;;;;
1c60826b-0fcc-4f45-be6f-d8f1bab814bd;Alphabio Laboratoire De Biologie Médicale;13014;Marseille;;Chemin de sainte marthe;;13214;;Laboratoire d'analyse médicale;;;5.388076;43.326154;;;True;True;;;;;;;;;;;;;;;;;;;;;;True;;;;;;;;;;;;80.0;;True;;;;;;;;;;;;;;;;;;;;[];;;;;;;;;;;;;True;True;;;;;
61599a65-f450-447f-83c1-03a973cc2172;Alpha Sante;57440;Algrange;62;Rue du Maréchal Foch;;57012;;Hôpital;;;6.05196;49.364249;;;;;True;True;;;;;;;;;;;;;;;;;;;;True;;;;;;;;;;;;80.0;;True;;;;;;;;;;;;;;;;;;;;[];;;;;;;;;;;;;;;;;;;B3KS3W4F6VAF
a1221015-1def-4a2a-a217-5e97d508a778;Alpigène;69007;Lyon;8;Rue Saint Jean de Dieu;;69387;;Laboratoire d'analyse médicale;;http://www.labo-alpigene.fr/laboratoire/nos-laboratoires.aspx;4.845618;45.728852;;;;;;;;;;;;;;;;;;;;;;;;;;True;;;;;;;;;;;;80.0;;True;;;;;;;;;;;;;;;;;;;;[];;;;;;;;;;;;;True;True;;;;;7YD86FV2KNP7
4091d87f-9ee3-44d0-bc8e-83663860e2f5;Al Qadir;97600;Mamoudzou;1987;Route Nationale 2;;;;Maison de santé ou centre de santé;;;45.19894748455536;-12.816482896248528;False;;True;True;True;False;;;;;;;;;;;;;;;;;;;;;;;;;;;;;;;;;;;;;;;;;;;;;;;;;;;;;;[];;;;;;;;;;;;;;;;;;;
5b817bef-a560-4ab5-95cf-9ea5e1d32048;Alsace Biologie Hygiène A.B.H.;67450;Mundolsheim;8;Rue du Strengfeld;;67309;;Laboratoire d'analyse médicale;;;7.714897;48.638101;;;True;True;;;;;;;;;;;;;;;;;;;;;;;;;;;;;;;;;;;;True;;;;;;;;;;;;;;;;;;;;[];;;;;;;;;;;;;True;True;;;;;2FEMY95STWP8
b27c6ad9-d33b-464d-8768-52267da67ef1;ALTERIS Centre d'Hospitalisation de Chanat;63530;Chanat-la-Mouteyre;;Rue du Chancet;;63083;;Hôpital;;;3.017034;45.827777;;;True;True;True;True;;;;;;;;;;;;;;;;;;;;True;;;;;;;;;;;;80.0;;True;;;;;;;;;;;;;;;;;;;;[];;;;;;;;;;;;;;;;;;;
453ac3bd-ceaa-4266-bad4-ce6639ccb14f;Althea;97620;Chirongui;3;Route de Sada;;;;Centre médical;;;45.137698;-12.889715;False;;False;;False;;False;;;;;;;;;;;;;;;;False;True;True;False;False;;8.0;True;True;fixe;montant;False;;False;False;90.0;False;True;battante;manuelle;True;formés;False;;False;;False;False;;6.0;False;False;aucune;montant;;;;[];;;;;;;;;;False;;;True;True;"[""dpt""]";;;;
85e95e2c-1ecb-47dd-9e6b-a5fe46dc8c72;Altilabo Site de Monistrol;43120;Monistrol-sur-Loire;11;Avenue General Leclerc;;43137;;Laboratoire d'analyse médicale;;http://www.altilabo.fr/espace-patient/;4.1741;45.292029;;;True;True;True;True;;;;;;;;;;;;;;;;;;;;True;;;;;;;;;;;;80.0;;True;;;;;;;;;;;;;;;;;;;;[];;;;;;;;;;;;;True;True;;;;;5XG3GBQ93D18
0ba608d2-6a39-4245-b276-156c72991267;ALTILABO Site Michelet;43000;Le Puy-en-Velay;7;Place Michelet;;43157;;Laboratoire d'analyse médicale;;http://www.altilabo.fr/;3.886508;45.040654;True;;False;;True;True;False;;;;;;;;;;;;;;;;False;True;False;True;;;;;;;;;;False;;90.0;False;True;coulissante;automatique;False;;False;;;;True;;;;;;;;;;;[];;;;;;;;;;True;;;True;True;;;;;YMCBQAEPSVJ4
a7930429-3ae0-4e9a-88ad-6f737a142480;ALTILABO Site technique de Taulhac (accès réservé);43000;Le Puy-en-Velay;612;Avenue des Estelles;;43157;;Laboratoire d'analyse médicale;;http://www.altilabo.fr/;3.9017;45.01567;;;True;True;;;;;;;;;;;;;;;;;;;;;;True;;;;;;;;;;;;80.0;;True;;;;;;;;;;;;;;;;;;;;[];;;;;;;;;;;;;True;True;;;;;G3SSE3NQ4ER6
8e0404a5-e13f-4ea4-8af4-c3f5dcf0536d;Altisbio;81400;Carmaux;2;Avenue Bouloc Torcatis;;81060;;Laboratoire d'analyse médicale;;http://altisbio.com/;2.157792;44.052031;;;True;True;True;True;True;True;True;;;;;;;;;;;;;False;;;;True;;;;;;;;;;;;80.0;;True;;;;;;;;;;;;;;;;;;;;[];;;;;;;;;;;;;True;True;;;;;G6YSWKK1V4FP
77b309c1-7cf7-4c21-b425-3f3f4a1d83a6;Alvyn et les chimpeunks;22440;Ploufragan;33;Rue du Challonge;;22215;;Hôpital;;;-2.781445;48.47252;;;True;True;;;;;;;;;;;;;;;;;;;;;;True;;;;;;;;;;;;80.0;;True;;;;;;;;;;;;;;;;;;;;[];;;;;;;;;;;;;;;;;;;QHJHKCJEWK3V
37810da9-6ec2-40a5-a2e4-a369a59c93e1;Amandine Carciofo - Sophrologue;93160;Noisy-le-Grand;5;Avenue du Marechal Joffre;;93051;;Maison de santé ou centre de santé;;;2.557534;48.848126;;;False;;True;True;;;;;;;;;;;;;;;;;;;;True;;;;;;;;;;;;;;;;;;;;;;;;;;;;;;;;;;[];;;;;;;;;;;;;True;True;;;;;V6YXRKDESXDH
6bef2805-03b4-4550-8534-0088bbceef5e;Amandine Faure Sage-femme et Osteopathe;6200;Nice;43;Avenue Auguste Vérola;;6088;;Maison de santé ou centre de santé;;;7.190413;43.710451;;;True;True;;;True;True;True;;;;;;;;;;;;;False;;;;False;;;20.0;;;fixe;montant;;;;;;;;;;;;;;;;;;;;;;;;;;;[];;;;;;;;;;;;;True;True;;;;;
1ac4216d-02b5-4619-bb9e-cbf8d92017ad;Amélie BOURRICAUD | Chuchoteuse de Bébé - Psycho-énergéticienne;31820;Pibrac;2;Rue des Lucioles;;31417;;Centre médical;;;1.277733;43.616024;;;True;True;;;True;True;True;;;;;;;;;;;;;False;;;;True;;;;;;;;;;;;;;;;;;;;;;;;;;;;;;;;;;[];;;;;;;;;;;;;True;True;;;;;
29486a07-ba56-4c0d-b3bd-c4d9a9ad7fd0;Amélie Fortier-Naturopathe;45200;Amilly;6;Rue des Églantines;;45004;;Centre médical;;;2.769359;47.990941;;;True;False;True;True;True;;;;;;;;;;;;;;;;;;;True;;;;;;;;;;;;;;;;;;;;;;;;;;;;;;;;;;[];;;;;;;;;;;;;;;;;;;
41264b14-7a85-455e-8d6c-ac8f699a2f4f;Amélie Martin;31190;Auterive;24;Impasse de Quilla;;31033;;Établissement de santé;;;1.45588;43.373479;;;True;True;;;True;True;True;;;;;;;;;;;;;False;;;;True;;;;;;;;;;;;;;;;;;;;;;;;;;;;;;;;;;[];;;;;;;;;;;;;True;True;;;;;
77bfdd65-167a-40d2-8331-15b2b8768f1c;Amélie MOISSET - Naturopathe;44000;Nantes;7;Rue des Cadeniers;;44109;;Centre médical;;;-1.564564;47.211622;;;False;;True;True;;;;;;;;;;;;;;;;;;;;True;;;;;;;;;;;;;;;;;;;;;;;;;;;;;;;;;;[];;;;;;;;;;;;;True;True;;;;;
e6343923-093b-4cf1-9c68-dc24b2ee2a04;Amelie puericultrice;92100;Boulogne-Billancourt;119;Avenue André Morizet;;92012;;Centre médical;;;2.230046;48.839806;;;False;;True;True;;;;;;;;;;;;;;;;;;;;;;;;;;;;;;;;;;;;;;;;;;;;;;;;;;;;;;[];;;;;;;;;;;;;True;False;;;;;
80171f53-6fb6-4f00-a0a6-d9d579e12f8e;American Medical Center Paris - English speaking doctors - GP - Emergencies - Wound sutures - Skin surgeries;75016;Paris;16;Avenue du Colonel Bonnet;;75116;;Centre médical;;;2.278031;48.855772;;;False;;True;False;;;;;;;;;;;;;;;;;;;;True;;;;;;;;;;;;;;;;;;;;;;;;;;;;;;;;;;[];;;;;;;;;;;;;True;True;;;;;
91f55122-2561-4047-b6e9-05003ad9e060;American Memorial Hospital;51100;Reims;47;rue Cognacq Jay;;51454;;Hôpital;;https://www.chu-reims.fr/le-chu/projets/projet-immobilier/dernieres-realisations/un-nouvel-hopital-pour-les-enfants;4.016795;49.230793;;;True;True;True;True;;;;;;;;;;;;;;;;;;;;True;;;;;;;;;;;;80.0;;True;;;;;;;;;;;;;;;;;;;;[];;;;;;;;;;;;;;;;;;;TABWDJ7PY8B1
af7cda2f-c379-4d86-8131-e2981b8dc7f4;Âme Terre Happy;83500;La Seyne-sur-Mer;;rue du luxembourg;;83126;;Maison de santé ou centre de santé;;;5.851396;43.112225;;;True;True;;;True;True;True;;;;;;;;;;;;;False;;;;True;;;;;;;;;;;;;;;;;;;;;;;;;;;;;;;;;;[];;;;;;;;;;;;;True;True;;;;;
e5e42357-a8a9-4e8b-8435-ec6f60e5fac7;Amgen SAS;92310;Sèvres;63;Grande Rue;;92072;;Laboratoire d'analyse médicale;;;2.210194;48.824033;;;;;;;;;;;;;;;;;;;;;;;;;;True;;;;;;;;;;;;80.0;;True;;;;;;;;;;;;;;;;;;;;[];;;;;;;;;;;;;True;True;;;;;TQWY8NAEBCB4
d6b930d7-7b78-491e-93d2-2beb0484ecfa;Amicale Du Centre Hospitalier;41000;Blois;6;Rue du Puits Neuf;;41018;;Hôpital;;;1.33632;47.580902;;;True;True;True;True;;;;;;;;;;;;;;;;;;;;True;;;;;;;;;;;;80.0;;True;;;;;;;;;;;;;;;;;;;;[];;;;;;;;;;;;;;;;;;;
146cefe1-8d90-4b57-8da5-9a79524308db;A.M.I.E;55100;Verdun;5;Rue Laurent Pons;;55545;;Centre médical;;;5.390084087848664;49.15385029523693;;;True;True;True;;True;True;True;;;;;;;;True;légère;longue;;;;True;;;True;;;;;;;;;;;;100.0;False;True;;;True;formés;;;;;;;;;;;;;;;;[];;;;;;;;;;;;;;;;;;;E1E352YFEKBK
051cb9dc-017e-46ac-ac61-99e1ca07b4cb;amphyp;31240;Saint-Jean;;Boulevard de Ratalens;;31488;;Centre médical;;;1.520375;43.648455;;;True;True;;;True;True;True;;;;;;;;;;;;;False;;;;True;;;;;;;;;;;;;;;;;;;;;;;;;;;;;;;;;;[];;;;;;;;;;;;;True;True;;;;;
b0540490-0f0c-4110-862f-31deea16692e;AMS PROPRETE;45800;Saint-Jean-de-Braye;42;Avenue André Marie Ampère;;45284;;Hôpital;;http://www.amsproprete.com/;1.951324;47.915377;;;;;True;True;;;;;;;;;;;;;;;;;;;;;;;;;;;;;;;;;;True;;;;;;;;;;;;;;;;;;;;[];;;;;;;;;;;;;;;;;;;B6RGSRC2AJR7
f09fe875-049a-46a7-9d8b-1e2b504c6ed6;Anabio;33300;Bordeaux;;Rue Blanqui;;33063;;Laboratoire d'analyse médicale;;;-0.549889;44.872561;;;;;;;;;;;;;;;;;;;;;;;;;;True;;;;;;;;;;;;80.0;;True;;;;;;;;;True;;;;;;;;;;;[];;;;;;;;;;False;;;True;True;;;;;
a6950380-0d42-40db-9460-4e4db0f6472d;Anabio Laboratoire;33120;Arcachon;7;Boulevard Deganne;;33009;;Laboratoire d'analyse médicale;;;-1.147552;44.654046;;;True;True;True;True;;;;;;;;;;;;;;;;;;;;True;;;;;;;;;;;;80.0;;True;;;;;;;;;;;;;;;;;;;;[];;;;;;;;;;;;;True;True;;;;;8W3NZ7JY6W2F
c1354f24-f1f2-48ac-9b19-2e16bc224048;Anaëlle CARTRY - Ostéopathe;92200;Neuilly-sur-Seine;109bis;Avenue Charles de Gaulle;;92051;;Centre médical;;;2.270066;48.881364;;;False;;True;True;;;;;;;;;;;;;;;;;;;;False;;;1.0;;;;montant;;;;;;;;;;;;;;;;;;;;;;;;;;;[];;;;;;;;;;;;;True;False;;;;;
165d5e08-05ab-4ee4-8058-b569d3d5b2ce;Analabo;33320;Le Taillan-Médoc;91B;Avenue de Soulac;;33519;;Laboratoire d'analyse médicale;;;-0.669051;44.9072;;;;;True;True;;;;;;;;;;;;;;;;;;;;True;;;;;;;;;;;;80.0;;True;;;;;;;;;;;;;;;;;;;;[];;;;;;;;;;;;;True;True;;;;;
750f1a8d-095f-496a-b9dc-29785ee4b866;Analyse & Action - CHALLANS;85300;Challans;2;Rue Owen Chamberlain;;85047;;Laboratoire d'analyse médicale;;https://agence.analyse-et-action.com/30-analyse-action-challans?utm_source=gmb;-1.881088;46.836202;;;;;True;True;;;;;;;;;;;;;;;;;;;;True;;;;;;;;;;;;80.0;;True;;;;;;;;;;;;;;;;;;;;[];;;;;;;;;;;;;;;;;;;
4819d100-796b-451f-95dd-2858ef283c3f;Analyse controle et nutrition;51000;Châlons-en-Champagne;15;Avenue Henri Becquerel;;51108;;Laboratoire d'analyse médicale;;;4.347721;48.966556;;;True;True;True;True;;;;;;;;;;;;;;;;;;;;True;;;;;;;;;;;;80.0;;True;;;;;;;;;;;;;;;;;;;;[];;;;;;;;;;;;;True;True;;;;;PXZKKDEC4JCQ
379a2c95-03e2-4763-98d9-bd5d1da1b890;Analyses;59240;Dunkerque;3;Rue Paul Machy;;59183;;Laboratoire d'analyse médicale;;;2.404537;51.040985;;;;;True;True;;;;;;;;;;;;;;;;;;;;True;;;;;;;;;;;;80.0;;True;;;;;;;;;;;;;;;;;;;;[];;;;;;;;;;;;;True;True;;;;;ZZZT7XATBEAK
213081b6-1b57-4b99-bb69-1b1b7d48dce7;Analyse Sang;57460;Behren-lès-Forbach;;Centre Commercial 1;;57058;;Laboratoire d'analyse médicale;;;6.932708;49.175248;;;;;True;True;;;;;;;;;;;;;;;;;;;;True;;;;;;;;;;;;80.0;;True;;;;;;;;;;;;;;;;;;;;[];;;;;;;;;;;;;True;True;;;;;
ac8ac9b6-d175-4453-a082-1aec46f5a15a;Analyses et Surface;27100;Val-de-Reuil;2;Voie de l’Innovation;;27701;;Laboratoire d'analyse médicale;;https://www.analyses-surface.com/;1.188684;49.257392;;;;;True;True;;;;;;;;;;;;;;;;;;;;True;;;;;;;;;;;;80.0;;True;;;;;;;;;;;;;;;;;;;;[];;;;;;;;;;;;;;;;;;;FBNCS2CVBJMN
26bf35e2-7303-4834-b149-1b8f2507830f;Analyses Medicales;57950;Montigny-lès-Metz;;Rue Général Franiatte;;57480;;Laboratoire d'analyse médicale;;;6.154996;49.091306;;;True;True;True;True;;;;;;;;;;;;;;;;;;;;True;;;;;;;;;;;;80.0;;True;;;;;;;;;;;;;;;;;;;;[];;;;;;;;;;;;;True;True;;;;;
90415a9c-735b-4b2a-a1ca-1387f2131ab7;Analyses Medicales;57000;Metz;26;Rue du Neufbourg;;57463;;Laboratoire d'analyse médicale;;;6.177562;49.112783;;;True;True;True;True;;;;;;;;;;;;;;;;;;;;True;;;;;;;;;;;;80.0;;True;;;;;;;;;;;;;;;;;;;;[];;;;;;;;;;;;;True;True;;;;;ZE5T4BE6VT65
ae34a264-6007-4a1a-b376-b17cf136c5d8;Analyses Medicales;92220;Bagneux;7bis;Rue Salvador Allende;;92007;;Laboratoire d'analyse médicale;;;2.30136;48.79478;;;;;;;;;;;;;;;;;;;;;;;;;;True;;;;;;;;;;;;80.0;;True;;;;;;;;;;;;;;;;;;;;[];;;;;;;;;;;;;True;True;;;;;FCDCR2DG94CT
803d865d-89e0-4fdb-9a3b-dd13d46309e8;Analyses Medicales;75020;Paris;6;Rue de Buzenval;;75120;;Laboratoire d'analyse médicale;;;2.402167;48.85032;;;;;;;;;;;;;;;;;;;;;;;;;;;;;;;;;;;;;;;;True;;;;;;;;;;;;;;;;;;;;[];;;;;;;;;;;;;True;True;;;;;MJMWMB7P1KNA
8cffdb07-dd2d-4fb5-a638-b850a3aa8bf1;Analyses Medicales;80100;Abbeville;13;Boulevard Vauban;;80001;;Laboratoire d'analyse médicale;;;1.839756;50.107706;;;True;True;True;True;;;;;;;;;;;;;;;;;;;;True;;;;;;;;;;;;80.0;;True;;;;;;;;;;;;;;;;;;;;[];;;;;;;;;;;;;True;True;;;;;RF69NC5HN2AY
211b1e12-4d9e-4980-bb35-391ddfaa06ad;Analyses Medicales;59270;Bailleul;7;Place Charles de Gaulle;;59043;;Laboratoire d'analyse médicale;;;2.735114;50.739178;;;;;True;True;;;;;;;;;;;;;;;;;;;;;;;;;;;;;;;;;;True;;;;;;;;;;;;;;;;;;;;[];;;;;;;;;;;;;;;;;;;K5C4C1P3XMR8
dd13799e-4856-4b9a-8df3-f0986f6bc394;Analyses Medicales;69220;Belleville-en-Beaujolais;7;Boulevard Joseph Rosselli;;69019;;Laboratoire d'analyse médicale;;;4.746082;46.106572;;;True;True;True;True;;;;;;;;;;;;;;;;;;;;True;;;;;;;;;;;;80.0;;True;;;;;;;;;;;;;;;;;;;;[];;;;;;;;;;;;;True;True;;;;;MMSDM1WZGZMY
3fe072be-e585-461d-896e-74b6629175d1;Analyses médicales;75009;Paris;77;Rue la Fayette;;75109;;Laboratoire d'analyse médicale;;;2.345498677932483;48.87638336985196;True;;False;;;;False;;;;;;;;;;;;;;;;True;True;True;False;False;;1.0;False;False;;descendant;False;;;;80.0;False;True;battante;manuelle;True;formés;;;;;True;;;;;;;;;;;[];;;;;;;;;;False;;;;;;;;;ER16B2GVA6WB
256c8766-7947-4b81-a4d1-6095730bf399;Analyses Medicales Andebio Trelazé;49800;Trélazé;34;Rue des Perreyeux;;49353;;Laboratoire d'analyse médicale;;;-0.512599;47.457417;;;True;True;True;True;;;;;;;;;;;;;;;;;;;;True;;;;;;;;;;;;80.0;;True;;;;;;;;;;;;;;;;;;;;[];;;;;;;;;;;;;True;True;;;;;5XWD8B5KKB27
843dd32c-5128-47f4-8d31-9654db6bc26a;Analyses Qualite Microbio;34130;Saint-Aunès;135;Rue de la Garriguette;;34240;;Laboratoire d'analyse médicale;;;3.974518;43.6495;;;;;True;True;;;;;;;;;;;;;;;;;;;;True;;;;;;;;;;;;80.0;;True;;;;;;;;;;;;;;;;;;;;[];;;;;;;;;;;;;True;True;;;;;YWF7BEZMNKMA
6a292cd2-56ab-4812-87e5-82ee4afc92db;ANALYSIS HEMP;93170;Bagnolet;37;Avenue du Général de Gaulle;;93006;;Laboratoire d'analyse médicale;;https://www.instagram.com/analysishemp/;2.417684;48.86475;;;;;;;;;;;;;;;;;;;;;;;;;;True;;;;;;;;;;;;80.0;;True;;;;;;;;;;;;;;;;;;;;[];;;;;;;;;;;;;True;True;;;;;JETE27ZDH14W
f6422e87-4a10-405e-96d5-dc79c1d40517;ANAPHORE ACGR;29200;Brest;53;rue de Loscoat;;29019;;Laboratoire d'analyse médicale;;https://www.labo-anaphore.fr/;-4.49289;48.423266;;;;;True;True;;;;;;;;;;;;;;;;;;;;;;;;;;;;;;;;;;True;;;;;;;;;;;;;;;;;;;;[];;;;;;;;;;;;;;;;;;;QZRNVDB5JBNN
2419acfb-60c9-4d3c-8a96-452cff15f54d;ANAS Le Courbat;37460;Le Liège;;Le Courbat;;37127;;Hôpital;;http://www.anaslecourbat.fr/;1.110806;47.248481;;;True;True;;;;;;;;;;;;;;;;;;;;;;True;;;;;;;;;;;;80.0;;True;;;;;;;;;;;;;;;;;;;;[];;;;;;;;;;;;;;;;;;;
f467fd92-a510-4653-bfa5-ff17a34aea9b;Anaval;94000;Créteil;14;Rue de la Porte de Brie;;94028;;Laboratoire d'analyse médicale;;;2.464034;48.790497;;;;;;;;;;;;;;;;;;;;;;;;;;True;;;;;;;;;;;;80.0;;True;;;;;;;;;;;;;;;;;;;;[];;;;;;;;;;;;;True;True;;;;;EEQTVW7NQHK9
c9bdee23-8e0b-40ad-95a2-47b2414b2553;Ancien Hôpital;69300;Caluire-et-Cuire;6;Rue de Margnolles;;69034;;Hôpital;;;4.833717;45.782288;;;True;True;True;True;;;;;;;;;;;;;;;;;;;;True;;;;;;;;;;;;80.0;;True;;;;;;;;;;;;;;;;;;;;[];;;;;;;;;;;;;;;;;;;
f9921835-9832-4778-92e1-5a89aaee0d21;Ancien Hôpital Militaire Gaujot;67000;Strasbourg;7;Rue de l'Hôpital Militaire;;67482;;Hôpital;;;7.758966;48.578279;;;True;True;;;;;;;;;;;;;;;;;;;;;;;;;;;;;;;;;;;;True;;;;;;;;;;;;;;;;;;;;[];;;;;;;;;;;;;;;;;;;727N8DQQ7VC6
e37a1465-61c2-404e-b15d-223b92029251;Andebio;49500;Segré-en-Anjou Bleu;;Rue Saint Joseph;;49331;;Laboratoire d'analyse médicale;;;-0.87229;47.684511;;;True;True;True;True;;;;;;;;;;;;;;;;;;;;True;;;;;;;;;;;;80.0;;True;;;;;;;;;;;;;;;;;;;;[];;;;;;;;;;;;;True;True;;;;;
1060bae0-d8c1-4941-a9d1-5b70bfed197e;andebio angers centre;49100;Angers;4;Boulevard Bessonneau;;49007;;Laboratoire d'analyse médicale;;;-0.546543;47.47233;;;True;True;True;True;;;;;;;;;;;;;;;;;;;;True;;;;;;;;;;;;80.0;;True;;;;;;;;;;;;;;;;;;;;[];;;;;;;;;;;;;;;;;;;PFRGK9V8NRXZ
7a5c9764-7a1e-49ce-92cf-d6b2d10c1185;Andreas C. Jansson;40150;Soorts-Hossegor;;Avenue de Pascouaou;;40304;;Maison de santé ou centre de santé;;;-1.383422;43.670012;;;True;True;;;True;True;True;;;;;;;;;;;;;False;;;;True;;;;;;;;;;;;;;;;;;;;;;;;;;;;;;;;;;[];;;;;;;;;;;;;True;True;;;;;
40edd070-a1a6-47a5-af67-2645772645e1;Anesthésiste;56270;Ploemeur;10;Allée de la Clinique du Ter;;56162;;Établissement de santé;;;-3.399278;47.736224;True;;;;True;False;;;;;;;;;;;;;;;;;;;;;;;;;;;;;;;;;;True;;;;;;;;;;;;;;;;;;;;[];;;;;;;;;;;;;;;;;;;1DTH73Y6RCX8
1a3d10c1-a217-4f22-99a7-4d9ab1d2ac16;Angélique Degand Sophrologue Certifiée RNCP Saint-Lô-Manche;50420;Domjean;2;Place Saint Michel;;50164;;Maison de santé ou centre de santé;;;-1.033223;48.987196;;;True;True;;;True;True;True;;;;;;;;;;;;;False;;;;True;;;;;;;;;;;;;;;;;;;;;;;;;;;;;;;;;;[];;;;;;;;;;;;;True;True;;;;;
844ca7ea-268a-4dcc-bf55-f1218753f686;Angelique Kieffer Sophrologue;94100;Saint-Maur-des-Fossés;21;Avenue Foch;;94068;;Centre médical;;;2.488706;48.80358;;;False;;;;;;;;;;;;;;;;;;;;;;;True;;;;;;;;;;;;;;;;;;;;;;;;;;;;;;;;;;[];;;;;;;;;;;;;;;;;;;
b5d0f6bf-a244-48e3-98eb-9effba2b0d85;ANHDJ;75009;Paris;13;Rue de la Grange Batelière;;75109;;Hôpital;;http://www.anhdj.org/contact/;2.341821;48.873048;;;;;;;;;;;;;;;;;;;;;;;;;;True;;;;;;;;;;;;80.0;;True;;;;;;;;;;;;;;;;;;;;[];;;;;;;;;;;;;;;;;;;XY2BWZS9QZBH
ad2789ba-1f2f-407e-b3ff-d8ce8ebe7b11;Anider;50530;Sartilly-Baie-Bocage;2;Rue des Camélias;;50565;;Hôpital;;https://www.anider.asso.fr/;-1.462279;48.750152;;;True;True;;;;;;;;;;;;;;;;;;;;;;True;;;;;;;;;;;;80.0;;True;;;;;;;;;;;;;;;;;;;;[];;;;;;;;;;;;;;;;;;;D6P6B174WX89
2e991f40-668d-436e-893d-c2db23a43073;Anna Derma;10000;Troyes;31;Rue Claude Huez;;;;Établissement de santé;;;4.072938;48.297621;True;;False;;True;True;False;;;;;;;;;;;;;;;;True;True;True;True;;;;;;;;True;"[""interphone""]";;;85.0;False;True;battante;manuelle;False;;;;;;;;;;;;;;;;;[];;;;;;;;;;;;;;;;;;;41FFM7V9EBHY
a694b1f0-99af-4267-b98d-314df3d0de5f;Anne-Charlotte LA MARCA - Psychopraticienne à Roanne;42300;Roanne;15;Rue Waldeck Rousseau;;42187;;Maison de santé ou centre de santé;;;4.061672;46.038767;;;False;;True;True;;;;;;;;;;;;;;;;;;;;True;;;;;;;;;;;;;;;;;;;;;;;;;;;;;;;;;;[];;;;;;;;;;;;;True;True;;;;;XBY1ENH7K2K3
6a6e79f4-7355-433a-bb97-84e5f1d0dcd1;Anne-Claude PENALBA, Sophrologue Steenwerck, La Madeleine;59181;Steenwerck;24;Place du General de Gaulle;;59581;;Maison de santé ou centre de santé;;;2.777039;50.700276;;;False;;True;True;;;;;;;;;;;;;;;;;;;;True;;;;;;;;;;;;;;;;;;;;;;;;;;;;;;;;;;[];;;;;;;;;;;;;True;True;;;;;J36DAQAQ69PJ
78493e2a-d3bd-4f7e-9390-56013bceb5d9;Annecy - Neurofeedback Thérapeutique - Axelle Carail - Neuro Progress;74000;Annecy;29;Rue Sommeiller;;74010;;Établissement de santé;;;6.126288;45.902448;;;False;;True;True;;;;;;;;;;;;;;;;;;;;False;;;20.0;;;aucune;montant;;;;;;;;;;;;;;;;;;;;;;;;;;;[];;;;;;;;;;;;;True;False;;;;;9RWMG618ZAYH
a28a33a6-b7ff-4703-8ffc-1eb85a65f6c9;Anne-Gaelle Orsel - Graphothérapeute Calvados;14440;Douvres-la-Délivrande;43;Route de Caen;;14228;;Hôpital;;;-0.37723;49.291245;;;;;True;True;;;;;;;;;;;;;;;;;;;;True;;;;;;;;;;;;80.0;;True;;;;;;;;;;;;;;;;;;;;[];;;;;;;;;;;;;;;;;;;
de8f7ba7-0145-4436-9f0f-4f5cf5df8e96;Anne-Laure Belhassen;33320;Le Taillan-Médoc;42;Avenue de Soulac;;33519;;Établissement de santé;;;-0.668986;44.902909;;;True;True;;;True;True;True;;;;;;;;;;;;;False;;;;True;;;;;;;;;;;;;;;;;;;;;;;;;;;;;;;;;;[];;;;;;;;;;;;;True;True;;;;;
9217f514-efd9-4901-949f-efd0a2807fa1;Anne-Lise Collet, Naturopathe Et Nutritionniste;67560;Rosheim;110;Rue du Général de Gaulle;;67411;;Maison de santé ou centre de santé;;;7.471245;48.496556;;;True;True;;;True;True;True;;;;;;;;;;;;;False;;;;False;;;;;;;;;;;;;;;;;;;;;;;;;;;;;;;;;;[];;;;;;;;;;;;;True;True;;;;;
c658e70d-ec20-4b0c-b66c-20c071e08fe2;Anne Roquette SARL;78180;Montigny-le-Bretonneux;71;Avenue Joseph Kessel;;78423;;Maison de santé ou centre de santé;;;2.047066;48.770594;;;False;;True;True;;;;;;;;;;;;;;;;;;;;True;;;;;;;;;;;;;;;;;;;;;;;;;;;;;;;;;;[];;;;;;;;;;;;;True;True;;;;;
98469ea7-c11e-4deb-b4fc-49832892852a;Anne-Sophie Chevalier - Réflexologie Psychothérapie Hypnose Chambéry;73000;Chambéry;180;Rue Nant Bertaux;;73065;;Établissement de santé;;;5.906342;45.595803;;;False;;True;True;;;;;;;;;;;;;;;;;;;;True;;;;;;;;;;;;;;;;;;;;;;;;;;;;;;;;;;[];;;;;;;;;;;;;True;False;;;;;
d3da2030-c76a-49cb-8211-f8d602a42cab;Anne Tissot Graphothérapeute;1250;Journans;;Montée de Lachat;;1197;;Maison de santé ou centre de santé;;;5.33418;46.146457;;;True;True;;;True;False;;;;;;;;;;;;;;;;;;True;;;;;;;;;;;;;;;;;;;;;;;;;;;;;;;;;;[];;;;;;;;;;;;;True;True;;;;;
786804e5-7253-4388-864c-81add3a66c58;Annexe Ch de Verneuil d'Avre et d'Iton Salle des Fêtes de Francheville;27130;Verneuil d'Avre et d'Iton;;Rue du Canon;;27679;;Laboratoire d'analyse médicale;;;0.929791;48.736706;;;True;True;;;;;;;;;;;;;;;;;;;;;;True;;;;;;;;;;;;80.0;;True;;;;;;;;;;;;;;;;;;;;[];;;;;;;;;;;;;True;True;;;;;
eb601520-877a-4d86-b1a9-4b906fae60d7;Annexe hospitalière Arc en ciel;16120;Châteauneuf-sur-Charente;;Boulevard de la Republique;;16090;;Hôpital;;;-0.051753;45.598225;;;True;True;True;True;;;;;;;;;;;;;;;;;;;;True;;;;;;;;;;;;80.0;;True;;;;;;;;;;;;;;;;;;;;[];;;;;;;;;;;;;True;True;;;;;
f218d554-87a7-467c-9f8d-566b7aa4ae63;Annexe Rhéna;67000;Strasbourg;6;Rue François Epailly;;67482;;Hôpital;;;7.793017;48.572066;;;True;True;;;;;;;;;;;;;;;;;;;;;;True;;;;;;;;;;;;80.0;;True;;;;;;;;;;;;;;;;;;;;[];;;;;;;;;;;;;;;;;;;WW9F65DZ3NAM
13967830-574e-4530-9807-c6b3604142ab;Annulé;45000;Orléans;;Place du Martroi;;45234;;Hôpital;;;1.904372;47.902467;;;True;True;True;True;;;;;;;;;;;;;;;;;;;;;;;;;;;;;;;;;;True;;;;;;;;;;;;;;;;;;;;[];;;;;;;;;;;;;True;True;;;;;
bf9f8178-46b3-46bd-889f-5b95cd625e4f;ANPAA;55200;Commercy;27;Rue des Capucins;;55122;;Établissement de santé;;;5.592008;48.760953;;;True;;True;;True;True;True;;;;;;;;True;importante;longue;;False;False;;True;;;;;;;;;;True;;;;;True;True;battante;manuelle;;;;;;;;;;;;;;;;;;[];;;;;;;;;;;;;;;;;;;
3495bfdb-608a-4cea-8098-4c4cbd0905fb;ANPAA 51;51170;Fismes;15;Faubourg de Soissons;;51250;;Centre médical;;;3.675421;49.307569;;;True;True;;;True;True;True;;;;;;;;;;;;;False;;;;True;;;;;;;;;;;;;;;;;;;;;;;;;;;;;;;;;;[];;;;;;;;;;;;;True;True;;;;;
ac1a8275-74f4-460c-bed8-968ec9d9e3a7;Antedis;32600;Beaupuy;;Lieu dit les Olives;;32038;;Laboratoire d'analyse médicale;;;1.010513;43.654751;;;True;True;True;True;;;;;;;;;;;;;;;;;;;;True;;;;;;;;;;;;80.0;;True;;;;;;;;;;;;;;;;;;;;[];;;;;;;;;;;;;True;True;;;;;
950c062c-a421-45bc-a455-7cb45aa8d753;Antenne Centre Médico-Psychologique - Pôle Caen Est;14000;Caen;184;Rue de Falaise;;14118;;Hôpital;;http://www.epsm-caen.fr/;-0.35033;49.165226;;;;;True;True;;;;;;;;;;;;;;;;;;;;;;;;;;;;;;;;;;True;;;;;;;;;;;;;;;;;;;;[];;;;;;;;;;;;;True;True;;;;;NFJ12QG4KGK4
d3546259-656b-47b7-874c-273cb1f53841;Antenne de Smur - Ch D'Epernay;51120;Sézanne;16;Rue des Recollets;;51535;;Hôpital;;;3.726303687326436;48.72292199221705;;;True;True;True;True;True;True;True;;;;;;;;False;;;léger;False;False;True;True;True;True;;;;;;;;False;;False;False;85.0;False;True;battante;manuelle;True;;;;;;True;;;;;;;;;;;[];;;;;;;;;;False;;;True;True;;;;;
0ee0634e-1af1-4cb9-9943-30a326d677ab;Antenne médicale;53240;Saint-Jean-sur-Mayenne;12;Rue Maurice Courcelle;;;;Centre médical;;;-0.7516327500343324;48.13037603540735;True;;True;True;True;True;False;;;;;;;;;;;;;;;;True;True;True;True;;;;;;;;True;"[""bouton""]";False;True;;False;True;battante;manuelle;;formés;;;;;;;;;;;;;;;;[];;;;;;;;;;;;;True;True;;;;;
fb0cd746-ab2e-45ed-a72e-d270d4f2142d;Antenne Nord Maison des Adolescents de la Manche;50100;Cherbourg-en-Cotentin;4;Rue du Commerce;;50129;;Hôpital;;http://www.maisondesados50.fr/;-1.624999;49.639856;;;True;True;;;;;;;;;;;;;;;;;;;;;;True;;;;;;;;;;;;80.0;;True;;;;;;;;;;;;;;;;;;;;[];;;;;;;;;;;;;;;;;;;V8Y4N572TMB5
81b7d92b-9aa3-4b41-9310-0764181f4575;Antoinette;6200;Nice;152;Boulevard des Jardiniers;;6088;;Laboratoire d'analyse médicale;;;7.192298;43.710417;;;;;;;;;;;;;;;;;;;;;;;;;;True;;;;;;;;;;;;80.0;;True;;;;;;;;;;;;;;;;;;;;[];;;;;;;;;;;;;True;True;;;;;V43DHPXZ1M2M
a1dddc2c-5f80-4a67-8fa6-392d8e90c520;Antonello Jean Marc;11000;Carcassonne;64;Rue Jean Bringer;;11069;;Maison de santé ou centre de santé;;;2.353141;43.215496;;;True;True;;;True;True;True;;;;;;;;;;;;;False;;;;;;;;;;;;;;;;;;;;;;;;;;;;;;;;;;;;;;[];;;;;;;;;;;;;True;False;;;;;
a30693b3-bb6c-4ee9-b8f0-27b6ed19dd97;Antonini Distribution;20000;Ajaccio;48;Cours Napoléon;;2A004;;Laboratoire d'analyse médicale;;;8.737711;41.922979;;;;;;;;;;;;;;;;;;;;;;;;;;;;;;;;;;;;;;;;True;;;;;;;;;;;;;;;;;;;;[];;;;;;;;;;;;;True;True;;;;;9JZ8Q5WK12M4
e2b73a7d-05e7-45b8-92cd-c9265d349853;APAJH N°1;10100;Romilly-sur-Seine;116;Avenue Jean Jaurés;;10323;;Hôpital;;;3.710502;48.515552;;;;;True;True;;;;;;;;;;;;;;;;;;;;True;;;;;;;;;;;;80.0;;True;;;;;;;;;;;;;;;;;;;;[];;;;;;;;;;;;;;;;;;;
b9ae02af-e059-45fc-8647-0244a663b544;APAJH SAVOIE;73160;Cognin;11;Rue daniel rops;;;;Établissement de santé;;http://www.apajh73.com;5.896255;45.567935;True;;True;True;True;True;True;True;True;;;;;;;;False;;;aucun;False;;;True;;False;True;;5.0;;True;aucune;montant;True;"[""bouton""]";False;True;90.0;;True;battante;;False;formés;False;;False;;True;;;;;;;;;;;[];;;;;;;;;;;;;True;;;;;;
e9874706-6550-4ef0-8364-ba2056ce7c7d;APAS-BTP - Centre de Santé Robert Pommier;75012;Paris;52;Avenue du Général Michel Bizot;;75112;;Hôpital;;http://www.apas.asso.fr/centre-de-sante-paris-12;2.40132;48.83489;;;;;;;;;;;;;;;;;;;;;;;;;;True;;;;;;;;;;;;80.0;;True;;;;;;;;;;;;;;;;;;;;[];;;;;;;;;;;;;True;True;;;;;5W42N2XZS8EG
f4a19c1a-8884-4bc2-9e67-972f0accf192;A.P.H.P.;75020;Paris;20;Rue des Balkans;;75120;;Hôpital;;;2.406801;48.860576;;;;;;;;;;;;;;;;;;;;;;;;;;True;;;;;;;;;;;;80.0;;True;;;;;;;;;;;;;;;;;;;;[];;;;;;;;;;;;;;;;;;;QFMZ9BSCHZXV
3aa03c45-7a7c-4160-8e1b-f9c02653d116;APLÉAT ACEP Direction Territoriale du Cher et du Loir-et-Cher;18000;Bourges;46;Boulevard de la Liberté;;18033;;Centre médical;;;2.402462;47.073992;;;False;;;;;;;;;;;;;;;;;;;;;;;True;;;;;;;;;;;;;;;;;;;;;;;;;;;;;;;;;;[];;;;;;;;;;;;;True;True;;;;;
e624ccf3-ab5b-4513-8d2b-d4f38349d9e8;Apollo Health Institute;40100;Dax;3;Avenue du Sablar;;40088;;Établissement de santé;;;-1.054788;43.714719;;;True;True;;;True;True;True;;;;;;;;;;;;;False;;;;True;;;;;;;;;;;;;;;;;;;;;;;;;;;;;;;;;;[];;;;;;;;;;;;;True;True;;;;;
f61525aa-e817-48a4-a4c5-8a5fb1c6078f;Appartement Relais Centre Hospitalier Spécialisé;45000;Orléans;14;Rue Jacques Groslot Bailli d'Orléans;;45234;;Hôpital;;;1.892288;47.9254;;;;;True;True;;;;;;;;;;;;;;;;;;;;True;;;;;;;;;;;;80.0;;True;;;;;;;;;;;;;;;;;;;;[];;;;;;;;;;;;;True;True;;;;;XV3TC3EHD9G4
8112fe7c-5bb0-476f-8079-bce0e34eaa35;Appartements thérapeutiques;69290;Craponne;6;Rue Jean-Baptiste Fayolle;;69069;;Hôpital;;http://www.clinique-ouestlyonnais.fr/;4.725691;45.748583;;;True;True;;;;;;;;;;;;;;;;;;;;;;True;;;;;;;;;;;;80.0;;True;;;;;;;;;;;;;;;;;;;;[];;;;;;;;;;;;;True;True;;;;;Z55KB32C1EVK
da2b2e66-1560-4621-bfc5-c7ef6af83197;Appartements Thérapeutiques CH Ravenel;88000;Épinal;6;Quai des Bons-enfants;;88160;;Hôpital;;;6.445628;48.175601;;;True;True;;;;;;;;;;;;;;;;;;;;;;True;;;;;;;;;;;;80.0;;True;;;;;;;;;;;;;;;;;;;;[];;;;;;;;;;;;;;;;;;;
5df270cd-ac0e-4a93-b4e0-971351ad6e1e;Appartement thérapeutique;37500;Chinon;;Rue des Caves Vaslin;;37072;;Hôpital;;https://www.ch-chinon.fr/appartement-therapeutique-chinon.html;0.240691;47.167281;;;;;True;True;;;;;;;;;;;;;;;;;;;;True;;;;;;;;;;;;80.0;;True;;;;;;;;;;;;;;;;;;;;[];;;;;;;;;;;;;;;;;;;
a97aa7a1-11ab-4f82-b122-81a55e952d4b;Apparte Serge;49000;Angers;24;Rue du docteur Guichard;;49007;;Hôpital;;;-0.547348;47.458475;;;True;True;;;;;;;;;;;;;;;;;;;;;;;;;;;;;;;;;;;;True;;;;;;;;;;;;;;;;;;;;[];;;;;;;;;;;;;True;True;;;;;7ZVF4WKZD7N5
9a08d187-8327-4cac-b5dc-f02819feaf48;A.p.p.s.u.m.;61000;Alençon;40;Rue Joseph Odolant Desnos;;61001;;Hôpital;;;0.097919;48.432651;;;;;True;True;;;;;;;;;;;;;;;;;;;;True;;;;;;;;;;;;80.0;;True;;;;;;;;;;;;;;;;;;;;[];;;;;;;;;;;;;True;True;;;;;
66f766be-c72d-4997-aaa5-a90d7b58d2b5;Apr 27;61300;L'Aigle;53;Rue de la Garenne;;61214;;Laboratoire d'analyse médicale;;;0.625576;48.759022;;;True;True;;;;;;;;;;;;;;;;;;;;;;;;;;;;;;;;;;;;True;;;;;;;;;;;;;;;;;;;;[];;;;;;;;;;;;;True;True;;;;;CQKRMC3ZMQ29
e683d03e-38ef-47ae-80e0-6105cb152942;Aprium La Grande Pharmacie des Aygalades;13015;Marseille;57;Chemin de saint antoine a saint joseph;;13215;;Établissement de santé;;https://aygalades.aprium-pharmacie.fr/accueil;5.363872;43.36394;;;True;True;;;True;True;True;;;;;;;;;;;;;False;;;;True;;;;;;;;;;;;;;;;;;;;;;;;;;;;;;;;;;[];;;;;;;;;;;;;True;False;;;;;
dc56ba62-2450-4a0c-8d1b-9c38d66f22c4;Aprium Pharmacie Carnot;42000;Saint-Étienne;21;Rue Bergson;;42218;;Établissement de santé;;;4.384461;45.448415;;;False;;True;True;;;;;;;;;;;;;;;;;;;;True;;;;;;;;;;;;;;;;;;;;;;;;;;;;;;;;;;[];;;;;;;;;;;;;True;False;;;;;
901664f1-0dc1-4c3c-b30d-33cd9b11d63c;Aprium Pharmacie Dagas;40000;Mont-de-Marsan;905;Avenue du Houga;;40192;;Centre médical;;;-0.483936;43.880715;;;True;True;;;True;True;True;;;;;;;;;;;;;False;;;;True;;;;;;;;;;;;;;;;;;;;;;;;;;;;;;;;;;[];;;;;;;;;;;;;False;;;;;;
66cea97a-5802-40d3-b24f-5681a1294ed5;Aprium Pharmacie de Bourg Argental;42220;Bourg-Argental;;Place d'Armeville;;42023;;Établissement de santé;;;4.560513;45.296873;;;True;;;;True;;;;;;;;;;;;;;;;;;;True;;;;;;;;;;;;;;;;;;;;;;;;;;;;;;;;;;[];;;;;;;;;;;;;;;;;;;
1dc0009e-b310-4bfb-bc8a-dd513bb912f7;Aprium Pharmacie de la Mairie;69400;Limas;2bis;Rue Pierre Ponot;;69115;;Établissement de santé;;;4.706635;45.975171;;;False;;True;True;;;;;;;;;;;;;;;;;;;;True;;;;;;;;;;;;;;;;;;;;;;;;;;;;;;;;;;[];;;;;;;;;;;;;False;;;;;;
279c459a-29e3-44cf-9463-1fddc3ff4fae;Aprium Pharmacie de la Rive Gauche;24100;Bergerac;22;Avenue Paul Doumer;;24037;;Établissement de santé;;;0.480691;44.84326;;;True;True;;;True;True;True;;;;;;;;;;;;;False;;;;True;;;;;;;;;;;;;;;;;;;;;;;;;;;;;;;;;;[];;;;;;;;;;;;;;;;;;;
318015de-6f16-495c-b981-d09c8560ee59;Aprium Pharmacie de l'Avenue;75007;Paris;55;Avenue de Suffren;;75107;;Établissement de santé;;;2.298438;48.852905;;;False;;True;False;;;;;;;;;;;;;;;;;;;;True;;;;;;;;;;;;;;;;;;;;;;;;;;;;;;;;;;[];;;;;;;;;;;;;True;False;;;;;
dcc7ea33-8f6e-4513-bf87-22886e610df4;Aprium Pharmacie de Maillane;13910;Maillane;;Route de Chateaurenard;;13052;;Établissement de santé;;;4.785464;43.835153;;;True;True;;;True;True;True;;;;;;;;;;;;;False;;;;True;;;;;;;;;;;;;;;;;;;;;;;;;;;;;;;;;;[];;;;;;;;;;;;;True;True;;;;;
09b28b9a-e04d-43d5-8702-a222225121b5;Aprium Pharmacie des 4 Saisons;62520;Le Touquet-Paris-Plage;17;Rue Saint-jean;;62826;;Établissement de santé;;;1.58235;50.524846;;;True;False;True;True;True;;;;;;;;;;;;;;;;;;;True;;;;;;;;;;;;;;;;;;;;;;;;;;;;;;;;;;[];;;;;;;;;;;;;False;;;;;;
fa795b88-10f1-4d9d-a42e-c36642e782cc;Aprium Pharmacie des Matignon;50400;Granville;1720;Avenue des Matignon;;50218;;Établissement de santé;;;-1.561865;48.837748;;;True;True;;;True;True;True;;;;;;;;;;;;;False;;;;True;;;;;;;;;;;;;;;;;;;;;;;;;;;;;;;;;;[];;;;;;;;;;;;;;;;;;;
1fc3bd8b-4598-43a1-9bb7-4cdb04ee6646;Aprium Pharmacie des Quatr'ânes;17300;Rochefort;97;Avenue d'Aunis;;17299;;Maison de santé ou centre de santé;;;-0.977733;45.95459;;;True;True;;;True;True;True;;;;;;;;;;;;;False;;;;True;;;;;;;;;;;;;;;;;;;;;;;;;;;;;;;;;;[];;;;;;;;;;;;;True;False;;;;;
ec51456b-c3d9-4d91-927e-8a2d11837e09;Aprium Pharmacie Léonard de Vinci;92400;Courbevoie;23;Avenue Léonard De Vinci;;92026;;Établissement de santé;;;2.236178;48.896674;;;False;;True;True;;;;;;;;;;;;;;;;;;;;True;;;;;;;;;;;;;;;;;;;;;;;;;;;;;;;;;;[];;;;;;;;;;;;;False;;;;;;
e9a417b1-e4ef-4fdd-ab49-e6f9f0cf7467;Aprium Pharmacie Lyautey;13470;Carnoux-en-Provence;119;Boulevard du Maréchal Juin;;13119;;Établissement de santé;;;5.566175;43.255693;;;True;True;;;True;True;True;;;;;;;;;;;;;False;;;;True;;;;;;;;;;;;;;;;;;;;;;;;;;;;;;;;;;[];;;;;;;;;;;;;True;True;;;;;
daff4e08-cfa3-4e24-9074-811eee72ee52;APRONET - Adapei Loire;42110;Feurs;;Rue Hélène Boucher;;42094;;Maison de santé ou centre de santé;;;4.233628;45.733255;;;True;True;;;True;True;True;;;;;;;;;;;;;False;;;;True;;;;;;;;;;;;;;;;;;;;;;;;;;;;;;;;;;[];;;;;;;;;;;;;True;True;;;;;
e82f4334-4bec-437e-9f58-b55843189c72;APSHD;88100;Saint-Dié-des-Vosges;29;Rue de la Belle Corvée;;88413;;Hôpital;;;6.958728;48.291955;;;True;True;True;True;;;;;;;;;;;;;;;;;;;;True;;;;;;;;;;;;80.0;;True;;;;;;;;;;;;;;;;;;;;[];;;;;;;;;;;;;;;;;;;PWSR8XWKWNS2
ef5e0ed7-7978-48aa-81ec-ec85d9af4aa3;APST37;37100;Tours;8;Allée Colette Duval;;37261;;Établissement de santé;;;0.706168;47.43543;;;False;;True;True;;;;;;;;;;;;;;;;;;;;True;;;;;;;;;;;;;;;;;;;;;;;;;;;;;;;;;;[];;;;;;;;;;;;;True;True;;;;;
d36e8f6a-8404-4f5c-bb7f-85279ab99343;Apsytude;69006;Lyon;241;Cours Lafayette;;69386;;Maison de santé ou centre de santé;;;4.863166;45.763799;;;False;;;;;;;;;;;;;;;;;;;;;;;False;;;2.0;;;aucune;montant;;;;;;;;;;;;;;;;;;;;;;;;;;;[];;;;;;;;;;;;;True;False;;;;;
4d1a58c4-ea8b-42d0-8aba-19b8f72267b8;Apta;13090;Aix-en-Provence;655;Avenue  Jean Dalmas;;13001;;Laboratoire d'analyse médicale;;;5.430514;43.531704;;;True;True;True;True;;;;;;;;;;;;;;;;;;;;True;;;;;;;;;;;;80.0;;True;;;;;;;;;;;;;;;;;;;;[];;;;;;;;;;;;;True;True;;;;;9JB1TFQSXKYZ
9cdd39de-43ac-4342-959e-3f2df96d36d4;Aqualam;44600;Saint-Nazaire;10;Boulevard Léon Gambetta;;44184;;Laboratoire d'analyse médicale;;https://www.aqualam.fr/contact/;-2.217649;47.275471;;;True;True;;;;;;;;;;;;;;;;;;;;;;;;;;;;;;;;;;;;True;;;;;;;;;;;;;;;;;;;;[];;;;;;;;;;;;;True;True;;;;;SN5ZGP56GRAZ
80787ef2-95be-4baf-99e1-46684678ed6f;Aquanalyse Laboratoire;10380;Plancy-l'Abbaye;;Crève Coeur;;10289;;Laboratoire d'analyse médicale;;https://www.aquanalyse-laboratoire.fr/;3.974425;48.574991;;;;;True;True;;;;;;;;;;;;;;;;;;;;True;;;;;;;;;;;;80.0;;True;;;;;;;;;;;;;;;;;;;;[];;;;;;;;;;;;;;;;;;;
fafbeea0-c186-4e3e-99c8-dd60260d2f7a;Aquatycia;94140;Alfortville;9ter;Rue Parmentier;;94002;;Laboratoire d'analyse médicale;;https://www.aquatycia.fr/;2.411834;48.807105;;;;;True;True;;;;;;;;;;;;;;;;;;;;True;;;;;;;;;;;;80.0;;True;;;;;;;;;True;;;;;;;;;;;[];;;;;;;;;;False;;;;;;;;;GG3N82X2RQDK
ac047183-c9c1-430f-baa1-25eacbcf9f83;Arair Assistance;45160;Olivet;355;Rue de la Juine;;45232;;Hôpital;;https://www.prestataire-de-sante.fr/;1.916422;47.849138;;;;;True;True;;;;;;;;;;;;;;;;;;;;True;;;;;;;;;;;;80.0;;True;;;;;;;;;;;;;;;;;;;;[];;;;;;;;;;;;;;;;;;;TADAZ9CWGDPJ
804dec34-50fa-4e88-acac-40713d3ea566;Arair Assistance;49130;Les Ponts-de-Cé;2a;Rue Henri Jarry;;49246;;Hôpital;;https://www.prestataire-de-sante.fr/;-0.504881;47.436067;;;True;True;;;;;;;;;;;;;;;;;;;;;;True;;;;;;;;;;;;80.0;;True;;;;;;;;;;;;;;;;;;;;[];;;;;;;;;;;;;;;;;;;5JEFS6CG9KWW
f8436548-92c1-4838-b02f-27467e76d4a2;Arairchar;51100;Reims;13;Rue Robert Fulton;;51454;;Centre médical;;;4.080108;49.23248;;;True;True;;;True;True;True;;;;;;;;;;;;;False;;;;True;;;;;;;;;;;;;;;;;;;;;;;;;;;;;;;;;;[];;;;;;;;;;;;;True;True;;;;;
e8b4ef17-ac65-4e90-956c-5904e9cb8625;A.r.a.u.c.o;37300;Joué-lès-Tours;6;Rue de la Douzillère;;37122;;Hôpital;;;0.655877;47.347148;;;True;True;True;True;;;;;;;;;;;;;;;;;;;;True;;;;;;;;;;;;80.0;;True;;;;;;;;;;;;;;;;;;;;[];;;;;;;;;;;;;;;;;;;JP9APDN2MDPZ
a220c9ab-170f-4378-8faf-b2a4c91a0bab;A.r.a.u.c.o;37390;Notre-Dame-d'Oé;;Rue Paul Henri Spaak;;37172;;Hôpital;;http://www.arauco.fr/;0.703188;47.440581;;;;;True;True;;;;;;;;;;;;;;;;;;;;True;;;;;;;;;;;;80.0;;True;;;;;;;;;;;;;;;;;;;;[];;;;;;;;;;;;;;;;;;;
08927a34-00ac-42e6-9428-c2039767a32c;A.r.a.u.c.o;37390;Notre-Dame-d'Oé;20;Rue de l'Égalité;;37172;;Hôpital;;https://arauco.fr/;0.711677;47.458442;;;True;True;True;True;True;True;True;;;;;;;;;;;;;False;;;;True;;;;;;;;;;;;80.0;;True;;;;;;;;;;;;;;;;;;;;[];;;;;;;;;;;;;True;True;;;;;YMKYRHD7Y1ZM
f366141f-60da-4710-8dae-8fb449f6ec5f;A.r.a.u.c.o.;37500;Saint-Benoît-la-Forêt;;Route de Tours;;37210;;Hôpital;;https://arauco.fr/;0.29116;47.187773;;;True;True;True;True;;;;;;;;;;;;;;;;;;;;True;;;;;;;;;;;;80.0;;True;;;;;;;;;;;;;;;;;;;;[];;;;;;;;;;;;;;;;;;;
639b6b41-86d6-4c6f-96d3-35e5b4217263;ArborVitae Life Coaching;31320;Auzeville-Tolosane;51;Allée Campferran;;31035;;Maison de santé ou centre de santé;;;1.48949;43.531534;;;False;;True;True;;;;;;;;;;;;;;;;;;;;True;;;;;;;;;;;;;;;;;;;;;;;;;;;;;;;;;;[];;;;;;;;;;;;;True;False;;;;;
1cc0f695-c277-471f-b59d-e017d27befaa;Aredemag;13005;Marseille;;Boulevard jean moulin;;13205;;Laboratoire d'analyse médicale;;;5.40042;43.289986;;;;;;;;;;;;;;;;;;;;;;;;;;;;;;;;;;;;;;;;True;;;;;;;;;;;;;;;;;;;;[];;;;;;;;;;;;;True;True;;;;;
f01a72e9-4c44-4208-9acc-d131fef4dcb6;Arenwald Isabelle;77680;Roissy-en-Brie;18;Avenue Lesage;;77390;;Laboratoire d'analyse médicale;;;2.671349;48.789952;;;True;True;True;True;;;;;;;;;;;;;;;;;;;;True;;;;;;;;;;;;80.0;;True;;;;;;;;;;;;;;;;;;;;[];;;;;;;;;;;;;True;True;;;;;AJFYPHAZY9TF
d93b0336-e69d-440a-a0b0-23adf1bca9d6;Arhm;69007;Lyon;247;Avenue Jean Jaurès;;69387;;Hôpital;;http://www.arhm.fr/;4.834572;45.732621;;;;;True;True;;;;;;;;;;;;;;;;;;;;True;;;;;;;;;;;;80.0;;True;;;;;;;;;;;;;;;;;;;;[];;;;;;;;;;;;;;;;;;;ADFX3M5W3AWG
ecb32e72-3cb7-48ba-b98d-3f2c9c022f94;Arhm;69360;Saint-Symphorien-d'Ozon;3;Rue de Selins;;69291;;Hôpital;;;4.854417;45.629935;;;;;True;True;;;;;;;;;;;;;;;;;;;;True;;;;;;;;;;;;80.0;;True;;;;;;;;;;;;;;;;;;;;[];;;;;;;;;;;;;True;True;;;;;TS7RQ6J9PEXF
bbdb0d23-a5d0-4fa8-9255-0a69ccaa5f5e;Ari;84100;Orange;;Rue de Belgique;;84087;;Centre médical;;;4.840644;44.122512;;;True;True;;;True;True;True;;;;;;;;;;;;;False;;;;True;;;;;;;;;;;;;;;;;;;;;;;;;;;;;;;;;;[];;;;;;;;;;;;;True;True;;;;;
0f94d200-ffea-499a-9e02-3ff221b3cd47;Ariège Biologie Médicale LBM Jany;9100;Pamiers;8;Rue Saint Vincent;;9225;;Laboratoire d'analyse médicale;;https://jany-ariegebiologie.fr/;1.607154;43.112715;;;True;True;True;True;;;;;;;;;;;;;;;;;;;;True;;;;;;;;;;;;80.0;;True;;;;;;;;;;;;;;;;;;;;[];;;;;;;;;;;;;True;True;;;;;HGPRDR386T22
a4619f3a-3e3d-4488-adf6-7e2b81ddd16d;Arimc Idf;92430;Marnes-la-Coquette;20;Rue Georges et Xavier Schlumberger;;92047;;Hôpital;;;2.174351;48.830057;;;;;True;True;;;;;;;;;;;;;;;;;;;;True;;;;;;;;;;;;80.0;;True;;;;;;;;;;;;;;;;;;;;[];;;;;;;;;;;;;;;;;;;
48722f7f-9543-46a2-86c1-1bf0e37c237a;Armelle Kirov - psychopracticienne Thérapies brèves et stratégiques;73100;Aix-les-Bains;55;Avenue du petit port;;73008;;Maison de santé ou centre de santé;;;5.907057;45.691752;;;False;;True;True;;;;;;;;;;;;;;;;;;;;True;;;;;;;;;;;;;;;;;;;;;;;;;;;;;;;;;;[];;;;;;;;;;;;;True;True;;;;;
df33a8a8-92cc-4f3e-8f77-75b99f344977;Armor Pathologie;22190;Plérin;4;Place Konrad Adenauer;;22187;;Laboratoire d'analyse médicale;;https://armor-pathologie.com/;-2.775612;48.546576;;;;;True;True;;;;;;;;;;;;;;;;;;;;True;;;;;;;;;;;;80.0;;True;;;;;;;;;;;;;;;;;;;;[];;;;;;;;;;;;;True;True;;;;;
93ef8a56-8dba-4131-97bf-aa47f204c6e6;Arnaud BELEY - La Trame®;78120;Rambouillet;41;Rue Raymond Patenôtre;;78517;;Maison de santé ou centre de santé;;;1.830532;48.640175;;;True;True;;;True;True;True;;;;;;;;;;;;;False;;;;True;;;;;;;;;;;;;;;;;;;;;;;;;;;;;;;;;;[];;;;;;;;;;;;;True;True;;;;;P5KPGEEGZWKT
06de6f60-f45a-4edd-8fee-2fa7b3ce665a;Arnaud LE COZ - Ostéopathe D.O. TOULON;83000;Toulon;96;Rue Marie-Therese;;83137;;Établissement de santé;;;5.938954;43.110153;;;False;;True;True;;;;;;;;;;;;;;;;;;;;True;;;;;;;;;;;;;;;;;;;;;;;;;;;;;;;;;;[];;;;;;;;;;;;;True;False;;;;;
0e54e057-c3ff-4800-b48f-2fa346310676;Aro Laboratoire;35730;Pleurtuit;5;Rue des Entreprises;;35228;;Laboratoire d'analyse médicale;;http://www.airthemis.com/;-2.054271;48.571186;;;;;True;True;;;;;;;;;;;;;;;;;;;;;;;;;;;;;;;;;;True;;;;;;;;;;;;;;;;;;;;[];;;;;;;;;;;;;;;;;;;M4V2WX4376WM
2d870bd6-5f5d-4304-bc56-5f406fb6d019;Aroun Frédéric;38210;Vourey;165;Route de Valence;;38566;;Maison de santé ou centre de santé;;;5.519585;45.318079;;;True;;;;True;;;;;;;;;;;;;;;;;;;True;;;;;;;;;;;;;;;;;;;;;;;;;;;;;;;;;;[];;;;;;;;;;;;;True;True;;;;;
89669e02-5dc0-430f-b1fe-6f02c6b8a5eb;Arriudarre Erny Roussille;24700;Montpon-Ménestérol;82;Avenue Georges Pompidou;;24294;;Laboratoire d'analyse médicale;;;0.146616;45.00779;;;True;True;True;True;;;;;;;;;;;;;;;;;;;;True;;;;;;;;;;;;80.0;;True;;;;;;;;;True;;;;;;;;;;;[];;;;;;;;;;False;;;True;True;;;;;YS5JWMYQAG3S
68e65956-c527-4fdc-88f7-2e659895e376;Artarit Yves;85000;La Roche-sur-Yon;80;Rue jean monnet;;85191;;Laboratoire d'analyse médicale;;;-1.419783;46.662018;;;True;True;True;True;;;;;;;;;;;;;;;;;;;;True;;;;;;;;;;;;80.0;;True;;;;;;;;;;;;;;;;;;;;[];;;;;;;;;;;;;True;True;;;;;NCRDVA367T97
d5fe7376-74e3-454d-ad84-1accbc97930c;Art Dent Clement;81600;Gaillac;;Avenue Saint-Exupéry;;81099;;Laboratoire d'analyse médicale;;;1.885783;43.897963;;;;;True;True;;;;;;;;;;;;;;;;;;;;;;;;;;;;;;;;;;True;;;;;;;;;;;;;;;;;;;;[];;;;;;;;;;;;;;;;;;;
a6c151b4-7e1f-4060-8316-c083cfdf6b16;A.r.t.e.s;30340;Saint-Privat-des-Vieux;1;Route de Salindres;;30294;;Hôpital;;;4.101251;44.150662;;;;;True;True;;;;;;;;;;;;;;;;;;;;True;;;;;;;;;;;;80.0;;True;;;;;;;;;;;;;;;;;;;;[];;;;;;;;;;;;;True;True;;;;;
9e089536-39f7-48ea-aef3-fed64966ab35;Art in Lab;75007;Paris;82;Rue de Varenne;;75107;;Laboratoire d'analyse médicale;;;2.317371;48.855647;;;False;;;;;;;;;;;;;;;;;;;;;;;True;;;;;;;;;;;;;;;;;;;;;;;;;;;;;;;;;;[];;;;;;;;;;;;;True;False;;;;;
c6d7658a-58ec-4255-88e8-c6853e6c87d2;ART-THÉRAPEUTE;86210;Bonneuil-Matours;15;Rue du 8 Mai;;;;Établissement de santé;;;0.572587;46.681441;True;;False;;True;True;False;;;;;;;;;;;;;;;;True;True;True;False;False;;1.0;True;False;aucune;montant;True;"[""visiophone""]";False;True;162.0;False;True;battante;manuelle;True;formés;False;;False;;False;False;;4.0;True;True;aucune;montant;;;;[];;;;;;;;;;False;;;True;;;;;;VC9GSQM9PFZ5
418fa461-ac17-40bb-9d05-c59916f1476e;As-Coaching, Préparation Mentale.;9200;Saint-Girons;101;Boulevard Frédéric Arnaud;;9261;;Centre médical;;;1.14836;42.983308;;;True;True;;;True;True;True;;;;;;;;;;;;;False;;;;True;;;;;;;;;;;;;;;;;;;;;;;;;;;;;;;;;;[];;;;;;;;;;;;;True;True;;;;;
9af17ad8-4f9a-4003-aa5c-b04e0dfe06d7;Asklepios;79200;Parthenay;40;Boulevard Anatole France;;79202;;Hôpital;;;-0.245133;46.644228;;;True;True;;;;;;;;;;;;;;;;;;;;;;True;;;;;;;;;;;;80.0;;True;;;;;;;;;;;;;;;;;;;;[];;;;;;;;;;;;;;;;;;;MH5TJAPDQ4DW
634f1bbe-173f-4074-a7b6-d6612601d4d2;ASM BEAUMETZ CARCASSONNE (Clinique de la Cité Secteur 3) ((Clinique de la Cité Secteur 3));11000;Carcassonne;12;Rue Dujardin Beaumetz;;11069;;Hôpital;;;2.36032;43.206715;;;True;True;;;;;;;;;;;;;;;;;;;;;;True;;;;;;;;;;;;80.0;;True;;;;;;;;;;;;;;;;;;;;[];;;;;;;;;;;;;;;;;;;HFNXSYMWNX1X
2c79070b-cca6-4bb8-be67-8cab062ad351;ASM Permanence d'accès aux Soins de Sant;11000;Carcassonne;58;Avenue Bunau Varilla;;11069;;Hôpital;;;2.341087;43.211057;;;True;True;;;;;;;;;;;;;;;;;;;;;;True;;;;;;;;;;;;80.0;;True;;;;;;;;;;;;;;;;;;;;[];;;;;;;;;;;;;;;;;;;VNZTQTM8MTBT
655b9dd0-cf11-4e7f-a049-f2f773242bde;ASP17;17000;La Rochelle;1;Rue du Docteur Albert Schweitzer;;17300;;Hôpital;;;-1.145772;46.158617;;;True;True;;;;;;;;;;;;;;;;;;;;;;True;;;;;;;;;;;;80.0;;True;;;;;;;;;;;;;;;;;;;;[];;;;;;;;;;;;;;;;;;;
96f75a0d-5524-489e-8a9a-3d878e052f61;Aspec;61400;Mortagne-au-Perche;10;Chemin de la Grippe;;61293;;Hôpital;;http://www.assoaspec.fr/;0.554145;48.527364;;;;;True;True;;;;;;;;;;;;;;;;;;;;True;;;;;;;;;;;;80.0;;True;;;;;;;;;;;;;;;;;;;;[];;;;;;;;;;;;;;;;;;;G57Z665G9H4C
98fea2f3-2a05-4190-a18b-026719880c6c;ASPEN;76960;Notre-Dame-de-Bondeville;1;Rue de l'Abbaye;;76474;;Laboratoire d'analyse médicale;;https://www.aspenpharma.com/;1.041491;49.494876;;;;;True;True;;;;;;;;;;;;;;;;;;;;True;;;;;;;;;;;;80.0;;True;;;;;;;;;;;;;;;;;;;;[];;;;;;;;;;;;;;;;;;;
545ce407-f8d9-43b7-b014-d21714546c75;Aspilabo;63370;Lempdes;;rue Pierre Boulanger;;63193;;Laboratoire d'analyse médicale;;;3.208258;45.776755;;;True;True;True;True;;;;;;;;;;;;;;;;;;;;True;;;;;;;;;;;;80.0;;True;;;;;;;;;;;;;;;;;;;;[];;;;;;;;;;;;;True;True;;;;;
a86a2438-d14b-420e-8b7f-4df3fecde201;ASSAD-HAD du Loiret (Orleans - Briare - Pithiviers);45380;La Chapelle-Saint-Mesmin;4;Rue de Micy;;45075;;Hôpital;;https://www.assad-had.org/;1.852419;47.899332;;;True;True;True;True;;;;;;;;;;;;;;;;;;;;True;;;;;;;;;;;;80.0;;True;;;;;;;;;True;;;;;;;;;;;[];;;;;;;;;;False;;;;;;;;;2M2VN9HZDHCN
ea6bee50-1ee5-4c66-ac59-5aeafa934583;Ass Centre Medico Chirurgical St Exupe;71300;Montceau-les-Mines;2;Avenue Saint-exupéry;;71306;;Hôpital;;;4.369414;46.679962;;;True;True;True;True;;;;;;;;;;;;;;;;;;;;True;;;;;;;;;;;;80.0;;True;;;;;;;;;;;;;;;;;;;;[];;;;;;;;;;;;;True;True;;;;;ACJMS6QJDFKF
e430896e-3b1d-405b-8778-e99080064d87;Ass d'aide Aux Insuffisants Renaux;31390;Carbonne;15;rue Claude Nougaro;;31107;;Hôpital;;http://www.aair-dialyse.com/;1.229162;43.305479;;;True;True;;;True;True;True;;;;;;;;;;;;;False;;;;True;;;;;;;;;;;;80.0;;True;;;;;;;;;;;;;;;;;;;;[];;;;;;;;;;;;;True;True;;;;;8DY185J9TF98
788cf748-4886-424c-9300-e341bc066256;Ass Depistage Trait Enfance Inadaptee;95600;Eaubonne;14;Rue des Bouquinvilles;;95203;;Hôpital;;;2.274667;48.977528;;;;;True;True;;;;;;;;;;;;;;;;;;;;True;;;;;;;;;;;;80.0;;True;;;;;;;;;;;;;;;;;;;;[];;;;;;;;;;;;;True;True;;;;;
a126c009-79ea-4bb8-8d5b-c7a9d64930b2;Ass De Sante Au Travail De L Ariege;9000;Foix;22;Boulevard Alsace-lorraine;;9122;;Laboratoire d'analyse médicale;;;1.607057;42.961043;;;;;True;True;;;;;;;;;;;;;;;;;;;;True;;;;;;;;;;;;80.0;;True;;;;;;;;;;;;;;;;;;;;[];;;;;;;;;;;;;True;True;;;;;TDR3CRKBHNAQ
9070ac2e-5fdb-4da4-b304-839270aed6e2;Asselin Didier;14000;Caen;5;Rue des Carmes;;14118;;Laboratoire d'analyse médicale;;;-0.354712;49.181113;;;True;True;True;True;;;;;;;;;;;;;;;;;;;;True;;;;;;;;;;;;80.0;;True;;;;;;;;;;;;;;;;;;;;[];;;;;;;;;;;;;True;True;;;;;45H89KKB5DAC
06294e76-e494-4894-be8a-b8ee69151cf8;ASSIEU ORTHOPEDIE;38150;Assieu;36;Rue d'Écarlat;;38017;;Maison de santé ou centre de santé;;;4.867415;45.407101;;;True;True;;;True;True;True;;;;;;;;;;;;;False;;;;True;;;;;;;;;;;;;;;;;;;;;;;;;;;;;;;;;;[];;;;;;;;;;;;;True;True;;;;;
50306e6c-8bf1-4291-a682-ae1e807b0e85;Assistance Médicales Spécialisées;80420;Flixecourt;;Allée des Quarante;;80318;;Laboratoire d'analyse médicale;;;2.064917;50.029516;;;True;True;True;True;;;;;;;;;;;;;;;;;;;;True;;;;;;;;;;;;80.0;;True;;;;;;;;;;;;;;;;;;;;[];;;;;;;;;;;;;True;True;;;;;
f71f8d52-83b9-4312-bd5e-a68dd52992ab;Ass Maison des Familles de Patients Hospitalises A Saint Brieuc;22000;Saint-Brieuc;10;Rue Marcel Proust;;;;Établissement de santé;;https://fmah.fr/portfolio/maisondesfamillesdepatientshospitalises/;-2.748905;48.492779;;;True;True;True;True;False;;;;;;;;;;;;;;;;True;True;True;True;;;;;;;;;;;True;;False;True;battante;manuelle;True;;False;;False;;True;;;;;;;;True;;;[];;;;;;;;;;False;;;True;True;;;;;
c6db48be-1da9-4454-8d85-5387acb7bf9e;Ass Medicale Clinique Vontes Champgault;37320;Esvres;;Rue de Vontes;;37104;;Hôpital;;https://www.inicea.fr/sante-mentale/clinique-de-vontes-esvres-sur-indre-37320;0.804161;47.276093;;;True;True;True;True;;;;;;;;;;;;;;;;;;;;True;;;;;;;;;;;;80.0;;True;;;;;;;;;;;;;;;;;;;;[];;;;;;;;;;;;;True;True;;;;;
eab7b6bb-6801-4948-8d68-d2d94690ce63;Assocation Le Pélican;73000;Chambéry;241;Chemin des Moulins;;73065;;Maison de santé ou centre de santé;;http://www.le-pelican.org;5.928977;45.570775;False;;False;;True;True;True;True;False;False;;1.0;False;montant;False;;False;;;aucun;False;False;True;True;;True;;;;;;;;True;"[""interphone"", ""visiophone""]";False;True;;True;True;battante;manuelle;True;formés;False;;False;;True;;;;;;;;;;;[];;;;;;;;;;False;;;True;True;;;;;
40ed167e-98c0-4f70-8d5a-0574079d96b8;Assoc Depart de Promotion Pour la Sant;20200;Bastia;;Route du Castagno;;2B033;;Hôpital;;;9.432903;42.70259;;;True;True;;;;;;;;;;;;;;;;;;;;;;;;;;;;;;;;;;;;True;;;;;;;;;;;;;;;;;;;;[];;;;;;;;;;;;;;;;;;;
46d8f886-d147-4d5c-8637-943534fd0282;Assoc Depistage Organise des Cancers Vdm;94340;Joinville-le-Pont;68;Rue de Paris;;;;Centre médical;;;2.471025;48.814274;;;;;;;True;;True;;;;;;;;;;;;;;False;;;;;;;;;;;;;;True;;;True;;;False;;;;;;;;;;;;;;;;;[];;;;;;;;;;;;;;;;;;;
cf5b80bd-f0fb-4b66-adef-a44deeb46f77;Assoc Hospitaliere Nord Artois Cliniqu;59128;Flers-en-Escrebieux;;Rue d'Auby;;59234;;Hôpital;;;3.085088;50.401931;;;;;True;True;;;;;;;;;;;;;;;;;;;;True;;;;;;;;;;;;80.0;;True;;;;;;;;;;;;;;;;;;;;[];;;;;;;;;;;;;;;;;;;
6fe2ee3c-d3cf-4330-b2a7-8671641e2b28;Association Addictions france Consultations Jeunes Consommateurs des Sables d'Olonne;85100;Les Sables-d'Olonne;9;Rue de l'Amiral Vaugiraud;;85194;;Établissement de santé;;;-1.784642;46.501583;;;False;;True;True;;;;;;;;;;;;;;;;;;;;False;;;18.0;;;fixe;;;;;;;;True;;;;;;;;;;;;;;;;;;;;[];;;;;;;;;;;;;True;True;;;;;
84570aee-b59a-40ae-928a-1ff71480be0f;Association Addictions France - CSAPA d'Annonay;7100;Annonay;63;Avenue de l'Europe;;7010;;Centre médical;;;4.668258;45.245233;;;True;True;;;True;True;True;;;;;;;;;;;;;False;;;;True;;;;;;;;;;;;;;;;;;;;;;;;;;;;;;;;;;[];;;;;;;;;;;;;True;True;;;;;
c087cc72-0a28-40a6-bd9e-254af4b4c68d;Association Addictions France - CSAPA de Bourges;18000;Bourges;16;Boulevard de Juranville;;18033;;Établissement de santé;;;2.389072;47.084113;;;False;;True;True;;;;;;;;;;;;;;;;;;;;True;;;;;;;;;;;;;;True;;;;;;;;;;;;;;;;;;;;[];;;;;;;;;;;;;True;True;;;;;
257c140f-783e-4166-b0e5-d74d6cd98814;Association Addictions France - CSAPA de Brioude;43100;Brioude;3;Avenue Jean Jaurès;;43040;;Établissement de santé;;;3.377757;45.290749;;;True;True;;;True;;;;;;;;;;True;importante;;;;;;;;True;;;;;;;;;;;;;;;;;;;;;;;;;;;;;;;;;;[];;;;;;;;;;;;;True;True;;;;;
725bacbe-e1b6-4fcd-88d7-214a1fb0e49b;Association Addictions France - CSAPA de L'isle -Espagnac;16340;L'Isle-d'Espagnac;17;Avenue du Maréchal Juin;;16166;;Centre médical;;;0.181993;45.667511;;;True;True;;;True;True;True;;;;;;;;;;;;;False;;;;True;;;;;;;;;;;;;;;;;;;;;;;;;;;;;;;;;;[];;;;;;;;;;;;;True;True;;;;;
58b06432-d4a3-4dd4-91c6-8be59b627644;Association Addictions France - CSAPA de Troyes;10000;Troyes;2;Place Casimir Perier;;10387;;Centre médical;;;4.06639;48.298268;;;False;;True;True;;;;;;;;;;;;;;;;;;;;True;;;;;;;;;;;;;;;;;;;;;;;;;;;;;;;;;;[];;;;;;;;;;;;;True;True;;;;;
05ef8d2b-62d4-4628-87e2-a4c109a60ab6;Association Agir pour la Santé à Domicile;25150;Pont-de-Roide-Vermondans;3a;Rue de la Résistance;;;;Maison de santé ou centre de santé;;https://asd25.fr/;6.769868731498719;47.38437827827359;;;;;True;True;;;;;;;;;;;;;;;;;True;True;;True;;;;;;;;;;;True;;True;True;coulissante;automatique;True;;;;;;True;;;;;;;;;;;[];;;;;;;;;;;;;True;True;;;;;
ddd53c59-1628-4be3-8f76-bff49ed877de;Association ALTHÉA;24200;Sarlat-la-Canéda;30;Rue Jean Leclaire;;24520;;Établissement de santé;;;1.218805;44.898442;;;True;True;;;True;True;True;;;;;;;;;;;;;False;;;;True;;;;;;;;;;;;;;;;;;;;;;;;;;;;;;;;;;[];;;;;;;;;;;;;True;True;;;;;
5ded2984-a828-4ba7-86b9-d34844f60684;Association Audoise Sociale et Médicale ASM;11000;Carcassonne;1;Allee des Jardins du Beal;;11069;;Hôpital;;;2.359828;43.206787;;;True;True;;;;;;;;;;;;;;;;;;;;;;True;;;;;;;;;;;;80.0;;True;;;;;;;;;;;;;;;;;;;;[];;;;;;;;;;;;;;;;;;;PH24WWTXP7V4
6971ce70-3ef2-44b1-a713-ee0defbf01ae;Association bien être Hypnose;6530;Cabris;6;Rue de la Porte Haute;;6026;;Hôpital;;;6.876231;43.656323;;;;;True;True;;;;;;;;;;;;;;;;;;;;True;;;;;;;;;;;;80.0;;True;;;;;;;;;;;;;;;;;;;;[];;;;;;;;;;;;;True;True;;;;;6QEDWT2XRV26
8cf79d18-c4d2-4b5a-8609-d0bf78adab81;Association Breizh Lab;56000;Vannes;;Avenue Paul Duplaix;;56260;;Laboratoire d'analyse médicale;;http://breizhlab.fr/;-2.714502;47.653103;;;;;True;True;;;;;;;;;;;;;;;;;;;;True;;;;;;;;;;;;80.0;;True;;;;;;;;;;;;;;;;;;;;[];;;;;;;;;;;;;;;;;;;
b8c00ad3-8bc8-4c5a-ab34-9a2a98735e0e;Association Care And Health De Calais;62100;Calais;208;Avenue Roger Salengro;;62193;;Centre médical;;;1.834932;50.945738;;;True;True;;;True;True;True;;;;;;;;;;;;;False;;;;True;;;;;;;;;;;;;;;;;;;;;;;;;;;;;;;;;;[];;;;;;;;;;;;;True;True;;;;;
cfabc6a4-c90b-4569-b8f5-fe0b7d18cb5a;Association Centre Dentaire Lyon Lafayette;69006;Lyon;119;Cours Lafayette;;69386;;Établissement de santé;;;4.852287769317627;45.76373586445778;True;;False;;True;True;False;;;;;;;;;;;;;;;;True;True;True;True;;;;;;;;False;;False;True;120.0;False;True;coulissante;automatique;True;formés;;;False;;True;;;;;;;;;;;[];;;;;;;;;;False;;;;;;;;;75EPTYWX6Q41
1fe579a8-2b38-4066-aaea-29f697d5dfce;Association de Biologie Clinique SELARL;71400;Autun;4;Avenue du Morvan;;71014;;Laboratoire d'analyse médicale;;;4.294373;46.950304;;;True;True;True;True;;;;;;;;;;;;;;;;;;;;True;;;;;;;;;;;;80.0;;True;;;;;;;;;;;;;;;;;;;;[];;;;;;;;;;;;;True;True;;;;;B9PQAZQ9RSSV
b892e4fe-5131-4f3e-9432-4d4133195968;Association de Coordination et d'Appui Sanitaire-Cpts Coeur d'Yvelines;78640;Neauphle-le-Château;53;Avenue de la République;;78442;;Laboratoire d'analyse médicale;;https://partners.doctolib.fr/vaccination-covid-19/thoiry/association-de-coordination-et-d-appui-sanitaire-capsan-vaccination-covid?speciality_id=5494;1.908177;48.809353;;;True;True;True;True;;;;;;;;;;;;;;;;;;;;True;;;;;;;;;;;;80.0;;True;;;;;;;;;;;;;;;;;;;;[];;;;;;;;;;;;;True;True;;;;;FMDN8F2917NT
57f4c406-adcc-44cc-a74b-300fa5347b55;Association de Dialyse Varoise;83000;Toulon;;Avenue Georges Bizet;;83137;;Hôpital;;http://www.association-dialyse-varoise.fr/;5.947342;43.124211;;;;;True;True;;;;;;;;;;;;;;;;;;;;True;;;;;;;;;;;;80.0;;True;;;;;;;;;;;;;;;;;;;;[];;;;;;;;;;;;;;;;;;;
37143cf0-5229-4a05-a213-f62632a66f27;Association de Gestion du Centre de Sante Ctlm;89100;Sens;20;Rue Victor Guichard;;89387;;Centre médical;;;3.2844319939613347;48.20174135436656;;;False;;True;;False;;;;;;;;;;;;;;;;True;True;True;True;;;;;;;;False;;;;90.0;False;True;battante;manuelle;True;;;;;;True;;;;;;;;;;;[];;;;;;;;;;False;;;;;;;;;FK8RCBDY2A7D
19f920f7-18eb-4a19-a784-5a7492e11691;Association Départementale de Sauvegarde de l'Enfance et de l'Adolescence (A.D.S.E.A);2200;Soissons;2;Boulevard de Presles;;2722;;Hôpital;;;3.309033;49.375502;;;;;True;True;;;;;;;;;;;;;;;;;;;;;;;;;;;;;;;;;;True;;;;;;;;;;;;;;;;;;;;[];;;;;;;;;;;;;True;True;;;;;M4HBYDBNQE1R
46eea92b-ffda-4b5f-80a8-d8488cd39fd7;Association des Centres de Prévention AGIRC-ARRCO;75012;Paris;16;Rue Jules César;;75112;;Maison de santé ou centre de santé;https://www.centredeprevention.fr/contact/;https://www.centredeprevention.fr/;2.369598;48.84884;;;;;;;;;;;;;;;;;;;;;;;;;;;;;;;;;;;;;;;;True;;;;;;;;;;;;;;;;;;;;[];;;;;;;;;;;;;;;;;;;MKN14GZFYMWW
1cc74a0b-a531-4e18-ad58-fbec75739ca9;Association des Professionnels de la Maison de Sante du Canton de Cuiseaux;71480;CUISEAUX;;;LA MARRE;;;Maison de santé ou centre de santé;;;5.402633;46.488086;False;;True;False;True;True;True;True;True;;;;;;;;False;;;aucun;False;False;True;True;True;True;;;;;;;;True;;False;True;;False;True;battante;manuelle;True;formés;;;False;;True;;;;;;;;;;;[];;;;;;;;;;False;;;;;;;;;
60e914ba-483c-4d08-9c7a-c936f3f69dea;Association d'Imagerie Médicale;10000;Troyes;65;Rue Raymond Poincare;;10387;;Établissement de santé;;;4.078028;48.295006;;;True;True;;;True;True;True;;;;;;;;;;;;;False;;;;True;;;;;;;;;;;;;;;;;;;;;;;;;;;;;;;;;;[];;;;;;;;;;;;;;;;;;;
9a9762b8-ca78-4e2a-9d94-c7980eab0e55;Association du Centre Etienne Marcel;75011;Paris;3;Cité d'Angoulême;;75111;;Hôpital;;http://www.asso-cem.org/;2.374733;48.866692;;;;;;;;;;;;;;;;;;;;;;;;;;True;;;;;;;;;;;;80.0;;True;;;;;;;;;;;;;;;;;;;;[];;;;;;;;;;;;;;;;;;;939Y7M597P5E
8cd0cbcb-ca96-4e7e-9b64-50aaf01fd1eb;Association Hospitaliere De Joeuf;54240;Jœuf;10;Rue de l'Hôtel de Ville;;54280;;Hôpital;;;6.006654;49.229831;;;;;True;True;;;;;;;;;;;;;;;;;;;;True;;;;;;;;;;;;80.0;;True;;;;;;;;;;;;;;;;;;;;[];;;;;;;;;;;;;;;;;;;
8b4cffb3-40aa-4d6b-af65-57e6ac4b3dd2;Association Hospitalière Nord Artois Clinique;62800;Liévin;;Rue du Moulinage;;62510;;Hôpital;;;2.779531;50.426875;;;True;True;True;True;;;;;;;;;;;;;;;;;;;;True;;;;;;;;;;;;80.0;;True;;;;;;;;;;;;;;;;;;;;[];;;;;;;;;;;;;True;True;;;;;
28c21c66-6472-420f-a03a-f2396cb33a56;Association Hospitalière Saint Eloi;54230;Neuves-Maisons;1;Rue Victor de Lespinats;;54397;;Hôpital;;https://les-maisons-hospitalieres.fr/nos-etablissements/;6.102143;48.610495;;;True;True;True;True;;;;;;;;;;;;;;;;;;;;True;;;;;;;;;;;;80.0;;True;;;;;;;;;;;;;;;;;;;;[];;;;;;;;;;;;;;;;;;;3ZCEYBA5WVRP
f86be300-abf8-4f7c-a048-278f67d1ff2e;Association Hospitaliere Sainte Marie;6300;Nice;6;Boulevard Général Louis Delfino;;6088;;Hôpital;;http://www.ahsm.eu/;7.283438;43.705677;;;;;;;;;;;;;;;;;;;;;;;;;;True;;;;;;;;;;;;80.0;;True;;;;;;;;;;;;;;;;;;;;[];;;;;;;;;;;;;;;;;;;XKT2JEA1AKKK
c886d4da-f736-49cb-9457-3dbdf717159b;Association Hospitalière Sainte-Marie;43200;Yssingeaux;4;Avenue de Chaussand;;43268;;Hôpital;;;4.124554;45.145229;;;;;True;True;;;;;;;;;;;;;;;;;;;;True;;;;;;;;;;;;80.0;;True;;;;;;;;;;;;;;;;;;;;[];;;;;;;;;;;;;;;;;;;41BAW477664Y
07371d54-e302-45ca-ad3c-4facdc8d82ef;Association Hospitalière Sainte-Marie;63000;Clermont-Ferrand;58;avenue de l'Union Soviétique;;63113;;Hôpital;;;3.102409;45.780045;;;True;True;True;True;;;;;;;;;;;;;;;;;;;;True;;;;;;;;;;;;80.0;;True;;;;;;;;;;;;;;;;;;;;[];;;;;;;;;;;;;True;True;;;;;H25MD39PTBKP
61921839-cdec-41f6-a17e-9c80b17a8743;Association Hospitalière Sainte-Marie;63100;Clermont-Ferrand;49;rue des Gravouses;;63113;;Hôpital;;http://www.ahsm.eu/etablissements_ahsm/63;3.065654;45.783889;;;True;True;;;;;;;;;;;;;;;;;;;;;;True;;;;;;;;;;;;80.0;;True;;;;;;;;;;;;;;;;;;;;[];;;;;;;;;;;;;True;True;;;;;PRAAKMA2EBZX
2e93c3a3-bec6-4dcb-8c18-fe049ca262a3;Association Hospitalière Sainte-Marie;12000;Rodez;4;Rue Peyrot;;12202;;Hôpital;;;2.571483;44.351774;;;;;True;True;;;;;;;;;;;;;;;;;;;;True;;;;;;;;;;;;80.0;;True;;;;;;;;;;;;;;;;;;;;[];;;;;;;;;;;;;;;;;;;5BK2R9PGD37R
740dccb6-a269-4615-a6d5-95a4a83e4084;Association Hospitalière Sainte-Marie;6500;Menton;16;Rue Prato;;6083;;Hôpital;;;7.498603;43.774652;;;;;;;;;;;;;;;;;;;;;;;;;;True;;;;;;;;;;;;80.0;;True;;;;;;;;;;;;;;;;;;;;[];;;;;;;;;;;;;;;;;;;E3PWHJK8CCZR
ccd47d27-37de-4ee6-9962-ec446d572784;Association Hospitaliere St Helier (Association);35000;Rennes;54;Rue Saint-Hélier;;35238;;Hôpital;;;-1.669549;48.106452;;;True;True;;;;;;;;;;;;;;;;;;;;;;True;;;;;;;;;;;;80.0;;True;;;;;;;;;;;;;;;;;;;;[];;;;;;;;;;;;;;;;;;;J13FS9S4D3TN
3ea30617-014b-4f62-8400-f2d545ef420e;Association Les Maisons Hospitalières;54000;Nancy;;Rue des Ponts;;54395;;Hôpital;;https://www.les-maisons-hospitalieres.fr/;6.182261;48.687916;;;True;True;True;True;;;;;;;;;;;;;;;;;;;;True;;;;;;;;;;;;80.0;;True;;;;;;;;;;;;;;;;;;;;[];;;;;;;;;;;;;;;;;;;
b8593dcd-80b2-42fc-8412-fb9ed1fc4dfe;Association Les Maisons Hospitalières;54230;Neuves-Maisons;14;Rue Boyard;;54397;;Hôpital;;https://www.les-maisons-hospitalieres.fr/;6.102577;48.610289;;;True;True;True;True;;;;;;;;;;;;;;;;;;;;True;;;;;;;;;;;;80.0;;True;;;;;;;;;;;;;;;;;;;;[];;;;;;;;;;;;;;;;;;;5RTTE2JAJYXM
84804c39-a02e-4a21-a81e-d38d58bdcf6a;Association Lorraine Traitement Insuffisance Renale;88000;Épinal;2;Allée des Chênes;;;;Établissement de santé;;;6.452834308147431;48.20328591997546;;;True;True;;;;;;;;;;;;;;;;;;;True;True;True;True;;;;;;;;;;;;90.0;False;True;battante;manuelle;;;;;;;;;;;;;;;;;;[];;;;;;;;;;;;;True;True;;;;;W88RPR4QNQPJ
e8c47326-bbfb-4d9c-a3ec-678b2d748f9b;Association Nationale de Prévention en Alcoologie et Addictologie de l'Eure;27000;Évreux;9;Rue Dulong;;27229;;Établissement de santé;;;1.149426;49.022826;;;False;;True;True;;;;;;;;;;;;;;;;;;;;True;;;;;;;;;;;;;;;;;;;;;;;;;;;;;;;;;;[];;;;;;;;;;;;;True;True;;;;;
5d67d21e-0372-4451-b629-ef7e8c2b97b3;Association Ollier Maffucci;44270;Machecoul-Saint-Même;21;Rue  marcel brunelière;;44087;;Hôpital;;;-1.812612;46.986229;;;;;True;True;;;;;;;;;;;;;;;;;;;;True;;;;;;;;;;;;;;;;;;;;;;;;;;;;;;;;;;[];;;;;;;;;;;;;;;;;;;
e6b26093-57ec-493a-9fc3-01446d419c9a;Association Pour L Acces A la Medecine et A la Sante;80080;Amiens;150;Avenue de l'Europe;;;;Centre médical;http://contact@somedsante.fr;https://www.somedsante.fr/amiens/;2.307994;49.922644;True;;True;True;;;True;True;True;;;;;;;;False;;;aucun;False;;;True;;True;;;;;;;;False;;False;True;150.0;False;True;coulissante;automatique;True;non-formés;False;;False;;True;;;;;;;;;;;[];;;;;;;;;;False;;;True;True;;;;;
4148cefb-8dbf-4735-a6fc-f41902683912;Association Provinoise Dialyse Domicile;77160;Provins;;Chemin des Grattons;;77379;;Hôpital;;http://autodialyse-provins.asso-web.com/;3.299762;48.545265;;;;;True;True;;;;;;;;;;;;;;;;;;;;True;;;;;;;;;;;;80.0;;True;;;;;;;;;;;;;;;;;;;;[];;;;;;;;;;;;;;;;;;;
b3836aab-5170-40f9-b17f-871677161690;Association Régionale Contrôle Toxicologie Pharmacol;80000;Amiens;1;Rue des Louvels;;80021;;Laboratoire d'analyse médicale;;;2.293719;49.890557;;;True;True;True;True;;;;;;;;;;;;;;;;;;;;;;;;;;;;;;;;;;True;;;;;;;;;;;;;;;;;;;;[];;;;;;;;;;;;;True;True;;;;;
e7046777-7da7-4ba8-93c8-3a33caf5de63;Association SERENA;13010;Marseille;;Rue verdillon;;13210;;Hôpital;;;5.42249;43.276104;;;False;;True;True;;;;;;;;;;;;;;;;;;;;True;;;;;;;;;;;;;;;;;;;;;;;;;;;;;;;;;;[];;;;;;;;;;;;;True;True;;;;;
b52c4a26-3f67-4de8-a66c-bae64b77ed22;Association Tous avec Hugo;6300;Nice;16;Rue Soleau;;6088;;Hôpital;;http://www.tousavechugo.fr/;7.290805;43.701561;;;;;;;;;;;;;;;;;;;;;;;;;;True;;;;;;;;;;;;80.0;;True;;;;;;;;;;;;;;;;;;;;[];;;;;;;;;;;;;;;;;;;EJTQYNXEH3SN
94ec07fc-a74a-4032-b8ed-c50c142410fb;Association Valentin Haüy (Au service des aveugles et malvoyants);71100;Chalon-sur-Saône;34;Rue Jean Moulin;;71076;;Établissement de santé;;;4.845998;46.785697;;;;;True;True;True;True;True;;;;;;;;;;;;;;True;True;True;True;;;;;;;;;;;;90.0;;True;battante;manuelle;;;;;;;;;;;;;;;;;;[];;;;;;;;;;;;;;;;;;True;K934H83KQPHD
732c220b-f808-43ca-a257-c9f347eb54c3;Association Valentin Haüy AVH;75007;Paris;5;Rue Duroc;;75107;;Hôpital;;http://www.avh.asso.fr/;2.313987;48.847755;;;;;True;True;;;;;;;;;;;;;;;;;;;;True;;;;;;;;;;;;80.0;;True;;;;;;;;;;;;;;;;;;;;[];;;;;;;;;;;;;;;;;;;NYWDRSCDR2AY
655df554-ef18-478e-826d-42545d790743;Associe de la Scp Gleizes-Bellier;51200;Épernay;10;Rue de la Porte Lucas;;51230;;Laboratoire d'analyse médicale;;;3.954246;49.044937;;;False;;True;;False;;;;;;;;;;;;;;;;True;True;;True;;;;;;;;False;;False;False;85.0;False;True;battante;manuelle;True;;;;False;;True;;;;;;;;;;;[];;;;;;;;;;False;;;False;;;;;;M9YWZZQZ9VN6
4bdcd813-04f1-4ec6-adae-1b494798cdf9;Assoc le Pelican;73200;Albertville;45;Avenue jean jaurès;;;;Établissement de santé;;http://www.le-pelican.org;6.389751;45.669433;False;;False;;True;True;True;True;True;;;;;;;;True;légère;;;False;False;;True;;True;;;;;;;;True;"[""bouton""]";False;True;;False;True;battante;manuelle;;formés;False;;False;;True;;;;;;;;;;;[];;;;;;;;;;False;;;True;True;;;;;
a301cc17-b9a5-4f58-ae28-eec3734a7f4a;Assoc Medicale Du Centre Mauges;49600;Beaupréau-en-Mauges;49;Rue Louise Voisine (Beaupréau);;49023;;Hôpital;;;-0.981755;47.202119;;;True;True;True;True;;;;;;;;;;;;;;;;;;;;True;;;;;;;;;;;;80.0;;True;;;;;;;;;;;;;;;;;;;;[];;;;;;;;;;;;;;;;;;;
f8ae38a0-715e-4cb1-9821-f1c43f09a188;Assoc Pour Adultes Jeunes Handicapes;43100;Brioude;5;Rue de la Chauniere;;43040;;Hôpital;;;3.376502;45.295223;;;;;True;True;;;;;;;;;;;;;;;;;;;;True;;;;;;;;;;;;80.0;;True;;;;;;;;;;;;;;;;;;;;[];;;;;;;;;;;;;True;True;;;;;GK2CMTQJKGN4
ab11bd8c-48a3-4dd8-a990-1d85b181df8e;Assoc Promotion Projets Ville Hopital;75015;Paris;10;Rue Vaugelas;;75115;;Hôpital;;;2.294653;48.834442;;;;;True;True;;;;;;;;;;;;;;;;;;;;True;;;;;;;;;;;;80.0;;True;;;;;;;;;;;;;;;;;;;;[];;;;;;;;;;;;;;;;;;;CTGFFB65WKYF
e4a28533-4d2f-4aac-a5a9-9c743b6760c2;Ass Pour Utilisation Rein Artificiel;14390;Cabourg;;Avenue de la Divette;;14117;;Hôpital;;;-0.121493;49.284853;;;True;True;;;;;;;;;;;;;;;;;;;;;;True;;;;;;;;;;;;80.0;;True;;;;;;;;;;;;;;;;;;;;[];;;;;;;;;;;;;;;;;;;
684f67e0-db99-4941-b632-dba1917a0ce9;Ass Reg Infirmes Moteur Cerebraux;69009;Lyon;106;Rue Jean Fournier;;69389;;Hôpital;;;4.793841;45.779414;;;;;True;True;;;;;;;;;;;;;;;;;;;;True;;;;;;;;;;;;80.0;;True;;;;;;;;;;;;;;;;;;;;[];;;;;;;;;;;;;True;True;;;;;KXBXY339Z6Z2
078a632e-570a-492b-bd9d-688ab0babf64;Assulin Teddy;95310;Saint-Ouen-l'Aumône;59;Rue du General Leclerc;;95572;;Hôpital;;;2.102769;49.047417;;;;;True;True;;;;;;;;;;;;;;;;;;;;;;;;;;;;;;;;;;True;;;;;;;;;;;;;;;;;;;;[];;;;;;;;;;;;;True;True;;;;;
c3aea92e-6ecc-4aec-be1b-4228d4b6106d;Atelier Thérapeutique (ATRH) -Centre Hospitalier du Chinonais;37500;Chinon;68;Route de Turpenay;;37072;;Hôpital;;http://www.ch-chinon.fr/;0.255953;47.178218;;;True;True;True;True;;;;;;;;;;;;;;;;;;;;True;;;;;;;;;;;;80.0;;True;;;;;;;;;;;;;;;;;;;;[];;;;;;;;;;;;;;;;;;;
1033a409-e6a3-4132-9947-e5000618de28;Aterovax;75014;Paris;29;Rue du Faubourg Saint-Jacques;;75114;;Laboratoire d'analyse médicale;;;2.338545;48.836953;;;;;;;;;;;;;;;;;;;;;;;;;;;;;;;;;;;;;;;;True;;;;;;;;;;;;;;;;;;;;[];;;;;;;;;;;;;True;True;;;;;GSD8CWSEHYCK
6e3e6a66-a843-4eaf-9382-21112167461a;ATEROVAX - Laboratoires;75015;Paris;56;Rue Leblanc;;75115;;Laboratoire d'analyse médicale;;;2.275557;48.838199;;;;;;;;;;;;;;;;;;;;;;;;;;;;;;;;;;;;;;;;True;;;;;;;;;;;;;;;;;;;;[];;;;;;;;;;;;;True;True;;;;;SKJ2GJ3S1JTP
2565cde7-10c2-4d2d-a5a5-6b4229f81e41;Athénaïs MIGKOFF;69630;Chaponost;1;Route des Troques;;69043;;Établissement de santé;;;4.761366;45.69657;;;;;;;;;;;;;;;;;;;;;;;;;;;;;;;;;;;;;;;;True;;;;;;;;;;;;;;;;;;;;[];;;;;;;;;;;;;;;;;;;PR2N87DMG7F4
69d001cd-3399-4243-a267-8f35d65e1a74;A.T.I.R.R.O Traitement des Insuffisants Rénaux Région d'Orléans;45100;Orléans;12;Rue Jean Moulin;;45234;;Hôpital;;;1.919594;47.8649;;;;;True;True;;;;;;;;;;;;;;;;;;;;True;;;;;;;;;;;;80.0;;True;;;;;;;;;;;;;;;;;;;;[];;;;;;;;;;;;;;;;;;;RQTESPE1ZXG6
f1772a79-dcd1-4981-bb4a-52341d5f9c75;ATLANGRAM;44200;Nantes;22;Boulevard Bénoni Goullin;;44109;;Laboratoire d'analyse médicale;;;-1.552588;47.201721;;;True;True;;;;;;;;;;;;;;;;;;;;;;True;;;;;;;;;;;;80.0;;True;;;;;;;;;;;;;;;;;;;;[];;;;;;;;;;;;;True;True;;;;;Q63AAJT42B3K
b571662f-393b-4d1f-9182-2c3d55afda33;ATLANTIC PATHOLOGIE;64990;Saint-Pierre-d'Irube;14;Allée de Bordenave;;64496;;Laboratoire d'analyse médicale;;https://www.atlantic-pathologie.fr/;-1.456041;43.477591;;;;;True;True;;;;;;;;;;;;;;;;;;;;True;;;;;;;;;;;;80.0;;True;;;;;;;;;;;;;;;;;;;;[];;;;;;;;;;;;;True;True;;;;;
b3468858-2ea3-4191-8865-e5118a98072f;Atlantique Alpes Ingénierie;19100;Brive-la-Gaillarde;;Rue Jacques Chaminade;;19031;;Laboratoire d'analyse médicale;;;1.489248;45.145069;;;;;True;True;;;;;;;;;;;;;;;;;;;;;;;;;;;;;;;;;;True;;;;;;;;;;;;;;;;;;;;[];;;;;;;;;;;;;;;;;;;
961aaa44-7472-4870-ab18-0ce1ae03898d;Atlantique Analyses SAS;17000;La Rochelle;;Rue Chef de Baie;;17300;;Laboratoire d'analyse médicale;;http://www.atlantique-analyses.fr/;-1.199093;46.154283;;;True;True;;;;;;;;;;;;;;;;;;;;;;True;;;;;;;;;;;;80.0;;True;;;;;;;;;;;;;;;;;;;;[];;;;;;;;;;;;;;;;;;;
bdf11978-d698-436e-9007-6f67dd373dac;Atmo Nord Pas-de-Calais;59800;Lille;201;Rue Colbert;;59350;;Laboratoire d'analyse médicale;;;3.040613;50.634794;;;True;True;;;;;;;;;;;;;;;;;;;;;;;;;;;;;;;;;;;;True;;;;;;;;;;;;;;;;;;;;[];;;;;;;;;;;;;True;True;;;;;XCNCNRT7ADGS
94219c0f-ccf7-4b2e-b4fd-4b31942a2971;ATOUTBIO 4 EGLISES laboratoire de biologie médicale;54000;Nancy;;Rue des Quatre Eglises;;54395;;Laboratoire d'analyse médicale;;https://atoutbio.eu/laboratoires/laboratoire-quatre-eglises/;6.184198;48.686506;;;;;True;True;;;;;;;;;;;;;;;;;;;;True;;;;;;;;;;;;80.0;;True;;;;;;;;;;;;;;;;;;;;[];;;;;;;;;;;;;True;True;;;;;
ce3dc70f-a890-4594-bb3f-334f9a673654;ATOUTBIO ARSENAL laboratoire de biologie médicale;54200;Toul;160;Avenue du Colonel Péchot;;54528;;Laboratoire d'analyse médicale;;https://atoutbio.eu/contact/#labo-36;5.8907;48.68048;;;True;True;True;True;;;;;;;;;;;;;;;;;;;;True;;;;;;;;;;;;80.0;;True;;;;;;;;;;;;;;;;;;;;[];;;;;;;;;;;;;True;True;;;;;Q8DRKJGKRYTH
8ab56470-4a70-4ed3-b561-5be47e48ebf5;ATOUTBIO BELLE FONTAINE laboratoire de biologie médicale;54700;Maidières;1bis;Avenue du General Leclerc;;54332;;Laboratoire d'analyse médicale;;https://atoutbio.eu/contact/#labo-30;6.043717;48.901008;;;True;True;True;True;;;;;;;;;;;;;;;;;;;;True;;;;;;;;;;;;80.0;;True;;;;;;;;;;;;;;;;;;;;[];;;;;;;;;;;;;True;True;;;;;286W7ZKHVVBP
b2df37be-2c98-48f3-8bbe-09e0fc693632;ATOUTBIO GREMILLON laboratoire de biologie médicale;54270;Essey-lès-Nancy;3;Rue Mère Térèsa;;54184;;Laboratoire d'analyse médicale;;https://atoutbio.eu/contact/#labo-23;6.224229;48.701968;;;True;True;True;True;;;;;;;;;;;;;;;;;;;;True;;;;;;;;;;;;80.0;;True;;;;;;;;;;;;;;;;;;;;[];;;;;;;;;;;;;True;True;;;;;69XP2HWDHVSJ
57b24c49-06cb-450d-bc5b-fba21ebd8fda;ATOUTBIO JARDIN DES CARRIERES laboratoire de biologie médicale;54100;Nancy;1170;Avenue Raymond Pinchard;;54395;;Laboratoire d'analyse médicale;;https://atoutbio.eu/contact/#labo-22;6.145403;48.700947;;;True;True;True;True;;;;;;;;;;;;;;;;;;;;True;;;;;;;;;;;;80.0;;True;;;;;;;;;;;;;;;;;;;;[];;;;;;;;;;;;;True;True;;;;;H11VXESCRXDG
b3075fe3-91e7-4bc8-b514-37fc6f6a9989;ATOUTBIO JARVILLE laboratoire de biologie médicale;54140;Jarville-la-Malgrange;20bis;Avenue de la Malgrange;;54274;;Laboratoire d'analyse médicale;;https://atoutbio.eu/contact/#labo-217;6.199645;48.669477;;;True;True;True;True;;;;;;;;;;;;;;;;;;;;True;;;;;;;;;;;;80.0;;True;;;;;;;;;;;;;;;;;;;;[];;;;;;;;;;;;;True;True;;;;;95NB91PJE3JW
615a9d29-2a0c-4cf7-8c4b-e55ec253ba53;ATOUTBIO JEANNE D'ARC laboratoire de biologie médicale;54500;Vandœuvre-lès-Nancy;8;Avenue Jeanne d'Arc;;54547;;Laboratoire d'analyse médicale;;https://atoutbio.eu/contact/#labo-211;6.182071;48.65938;;;True;True;True;True;;;;;;;;;;;;;;;;;;;;True;;;;;;;;;;;;80.0;;True;;;;;;;;;;;;;;;;;;;;[];;;;;;;;;;;;;True;True;;;;;G3FQ785DFJEN
c61af314-3461-46fd-839e-f06ddef62d4a;ATOUTBIO Laboratoire du PARC, biologie médicale;88800;Vittel;185;Rue Charles Garnier;;88516;;Laboratoire d'analyse médicale;;http://www.atoutbio.fr/;5.94421;48.204884;;;True;True;True;True;;;;;;;;;;;;;;;;;;;;True;;;;;;;;;;;;80.0;;True;;;;;;;;;;;;;;;;;;;;[];;;;;;;;;;;;;True;True;;;;;B9RETM239YWE
a6b50b8f-1d74-4ad8-a3ef-24a6c73aeb7b;ATOUTBIO LUDRES laboratoire de biologie médicale;54710;Ludres;75;Avenue Charles Choné;;54328;;Laboratoire d'analyse médicale;;https://atoutbio.eu/contact/%23labo-31;6.172515;48.62031;;;True;True;True;True;;;;;;;;;;;;;;;;;;;;True;;;;;;;;;;;;80.0;;True;;;;;;;;;;;;;;;;;;;;[];;;;;;;;;;;;;True;True;;;;;RYPW52J8ZDV6
82323edc-9785-4d44-8602-cbae178da52d;ATOUTBIO MEDREVILLE laboratoire de biologie médicale;54000;Nancy;88;Rue de Laxou;;54395;;Laboratoire d'analyse médicale;;https://atoutbio.eu/contact/#labo-26;6.160077;48.68531;;;True;True;True;True;;;;;;;;;;;;;;;;;;;;True;;;;;;;;;;;;80.0;;True;;;;;;;;;;;;;;;;;;;;[];;;;;;;;;;;;;True;True;;;;;1FSFCB724MPB
50c67dd0-300e-462a-8b03-ec29d166c1d5;ATOUTBIO MONTET Laboratoire d'Analyse de Biologie Médicale;54500;Vandœuvre-lès-Nancy;9;Square de Liège;;54547;;Laboratoire d'analyse médicale;;https://atoutbio.eu/contact/;6.168592;48.668212;;;True;True;True;True;;;;;;;;;;;;;;;;;;;;True;;;;;;;;;;;;80.0;;True;;;;;;;;;;;;;;;;;;;;[];;;;;;;;;;;;;True;True;;;;;K24VRW3ZJWZ5
d379295a-0b3a-476d-9fec-25a2b49398be;ATOUTBIO NATIONS laboratoire de biologie médicale;54500;Vandœuvre-lès-Nancy;23;Boulevard de l'Europe;;54547;;Laboratoire d'analyse médicale;;https://atoutbio.eu/contact/#labo-28;6.174184;48.661779;;;True;True;True;True;;;;;;;;;;;;;;;;;;;;True;;;;;;;;;;;;80.0;;True;;;;;;;;;;;;;;;;;;;;[];;;;;;;;;;;;;True;True;;;;;WN9Z3DNC7VTF
bf9bed22-bc74-450b-9267-885f2a09c17f;ATOUTBIO PLACE DES ARTS laboratoire de biologie médicale;54510;Tomblaine;1;Avenue de Hasbergen;;54526;;Laboratoire d'analyse médicale;;http://www.atoutbio.fr/laboratoire-de-tomblaine;6.213661;48.688904;;;True;True;True;True;;;;;;;;;;;;;;;;;;;;True;;;;;;;;;;;;80.0;;True;;;;;;;;;;;;;;;;;;;;[];;;;;;;;;;;;;True;True;;;;;JRJ6Q6J2614A
e1efdab4-c60f-420b-a2ec-579e1203d37a;ATOUTBIO PORTE VERTE Laboratoire de biologie médicale;54270;Essey-lès-Nancy;2;Avenue de Saulxures;;54184;;Laboratoire d'analyse médicale;;https://atoutbio.eu/;6.242851;48.710496;;;True;True;True;True;;;;;;;;;;;;;;;;;;;;True;;;;;;;;;;;;80.0;;True;;;;;;;;;True;;;;;;;;;;;[];;;;;;;;;;False;;;True;True;;;;;DZRCT3WW72W6
fb1ef94f-ce05-4b9b-b83f-358d6a78f773;ATOUTBIO SAINTOIS laboratoire de biologie médicale;54330;Vézelise;5;Rue de la Carrière;;54563;;Laboratoire d'analyse médicale;;https://atoutbio.eu/contact/#labo-33;6.086168;48.487395;;;;;;;;;;;;;;;;;;;;;;;;;;True;;;;;;;;;;;;80.0;;True;;;;;;;;;;;;;;;;;;;;[];;;;;;;;;;;;;True;True;;;;;GM3VJ845YB93
83564b6b-45e6-4fb0-b1c7-c23be82fe7f7;ATOUTBIO STANISLAS laboratoire de biologie médicale;54000;Nancy;70;Rue Stanislas;;54395;;Laboratoire d'analyse médicale;;https://atoutbio.eu/contact/#labo-19;6.177876;48.691958;;;True;True;True;True;;;;;;;;;;;;;;;;;;;;True;;;;;;;;;;;;80.0;;True;;;;;;;;;;;;;;;;;;;;[];;;;;;;;;;;;;True;True;;;;;5TKTHFNQZR4D
658082e8-ea95-4da4-a06c-474bcfedaa8e;ATOUTBIO VAL DE FER laboratoire de biologie médicale;54230;Neuves-Maisons;137;Rue Jean Jaures;;54397;;Laboratoire d'analyse médicale;;https://atoutbio.eu/contact/#labo-34;6.11005;48.622736;;;True;True;True;True;;;;;;;;;;;;;;;;;;;;True;;;;;;;;;;;;80.0;;True;;;;;;;;;;;;;;;;;;;;[];;;;;;;;;;;;;True;True;;;;;VPM8YFKH12TK
